gps_seconds[s]	panorama_file_name	latitude[deg]	longitude[deg]	altitude_ellipsoidal[m]	roll[deg]	pitch[deg]	heading[deg]
1142600949.45317	pano_0000_000000	52.3554160648035	4.94012197046403	38.9130643671378	-1.62862531303312	0.498527967534004	317.890287847751
1142600950.11822	pano_0000_000001	52.3553831309843	4.94017145459797	38.9101168811321	-1.51991779104205	0.479597563999571	317.651211348535
1142600950.78315	pano_0000_000002	52.3553505691893	4.9402216690619	38.914091495797	-1.51701507969006	0.507583382512437	316.680213299344
1142600951.45818	pano_0000_000003	52.3553182285083	4.94027234575618	38.9175222674385	-1.38203529524144	0.495398773770987	316.752715182309
1142600952.16311	pano_0000_000004	52.3552853208979	4.94032248312397	38.9173824517056	-1.33291130771802	0.741571651568329	317.692117525908
1142600952.90827	pano_0000_000005	52.3552518794307	4.94037198347256	38.9184293542057	-0.955059569714405	0.547998307426985	318.535261129703
1142600953.6931	pano_0000_000006	52.355218212121	4.94042062518481	38.9232163755223	-0.849555841575707	0.649610910882672	319.060333448187
1142600954.53818	pano_0000_000007	52.3551839479861	4.94046905701548	38.9303400730714	-0.995255895416541	0.473469548650591	319.568990772691
1142600955.44809	pano_0000_000008	52.3551494832482	4.94051694410988	38.9514569174498	-1.34992256535902	0.427736550986528	319.833561693079
1142600956.44808	pano_0000_000009	52.355115093647	4.94056521320845	38.9545011613518	-2.13672067800127	0.797249681656556	318.802024109683
1142600957.61305	pano_0000_000010	52.3550833070916	4.94061824392437	38.9650722071528	-2.3461102454654	0.270618745169925	311.096736223052
1142600958.96305	pano_0000_000011	52.355065814365	4.94068518869825	39.0145295402035	-0.509477488971398	0.00977280025392618	284.175972243662
1142600960.39304	pano_0000_000012	52.3550689031156	4.94075440287374	38.9922035392374	-2.570018201529	0.0712518715261866	258.847927613388
1142600961.99299	pano_0000_000013	52.3550882068821	4.94081691621187	39.018407552503	1.00189299992317	1.36169158419372	241.80128366194
1142600963.47299	pano_0000_000014	52.3551136661783	4.94087544307383	38.8849589079618	-0.872968501015251	5.11810621377551	232.570434462542
1142600964.87296	pano_0000_000015	52.3551434502914	4.9409297611348	38.8025895366445	-2.93373883287609	-0.21616381116352	226.950999311057
1142600966.058	pano_0000_000016	52.3551757751278	4.94098086084641	38.783284037374	-4.08950207010407	0.578305380333158	223.65564126703
1142600967.18798	pano_0000_000017	52.3552089719256	4.94102926593855	38.7869852501899	-2.38032535508993	0.354335927888465	223.325637991679
1142600968.27797	pano_0000_000018	52.3552413663089	4.94107792065238	38.7792520187795	-1.39834084615479	-0.111943469904067	223.848553924516
1142600969.34294	pano_0000_000019	52.3552735425735	4.94112630286404	38.7963918056339	-0.91925070618893	0.41394168760256	223.447002969014
1142600970.42796	pano_0000_000020	52.3553062253509	4.94117381412693	38.8027635170147	-0.734881457452707	0.852590016645579	221.873379067923
1142600971.5579	pano_0000_000021	52.3553388472193	4.94122090703726	38.7703768126667	1.20911605844409	0.833746441669628	223.418172976185
1142600972.79292	pano_0000_000022	52.3553703526149	4.94126942858521	38.7771313004196	1.75266510194408	0.660336166100983	224.599883357326
1142600974.1879	pano_0000_000023	52.3554013760819	4.94131868380828	38.8052852507681	0.360777443230807	0.110922215204713	224.001417809912
1142600975.6879	pano_0000_000024	52.3554367268289	4.94135737842967	38.8042971016839	0.286291500972167	0.762253436732455	208.145943148611
1142600977.02304	pano_0000_000025	52.3554786698706	4.94136349700394	38.7937443265691	1.08589977403385	-1.74233771009767	175.9513196326
1142600978.11784	pano_0000_000026	52.3555178972334	4.9413362920973	38.8093980932608	0.0154651073237144	0.227884906783411	149.529799444691
1142600979.12282	pano_0000_000027	52.3555508128868	4.94128689501034	38.7763767894357	-1.99962036401197	0.89048079945321	133.000520829763
1142600980.03801	pano_0000_000028	52.3555783101841	4.94122763169678	38.7153402008116	-2.94953262588367	0.60158206269657	125.265411434723
1142600980.8978	pano_0000_000029	52.3556037104893	4.94116525477319	38.6872632009909	-0.748058503231065	0.714442157092991	125.085095884464
1142600981.71272	pano_0000_000030	52.3556303482728	4.9411045088615	38.6749145593494	-2.05608076595413	0.0827061037623847	125.330954016849
1142600982.49271	pano_0000_000031	52.3556568538692	4.94104389506277	38.6647332198918	-3.29055013164144	1.16546967532582	125.262223095435
1142600983.26779	pano_0000_000032	52.3556826021371	4.94098267298872	38.6470842892304	-2.01931926724805	0.169090481513219	125.045647717154
1142600984.02793	pano_0000_000033	52.3557086899016	4.9409216962194	38.6370026944205	-2.85647027865536	0.445366282620703	124.938313051215
1142600984.77277	pano_0000_000034	52.3557343044373	4.94086055019954	38.6261015990749	-3.00924195862128	0.600349811003836	124.319866333707
1142600985.50269	pano_0000_000035	52.3557594165149	4.94079910751371	38.6243589064106	-3.02688558642047	0.447376843221826	123.827791175264
1142600986.21269	pano_0000_000036	52.3557839118733	4.94073736819315	38.6028746701777	-1.91536922691124	0.245302659658841	123.56209490012
1142600986.92778	pano_0000_000037	52.3558087806202	4.94067605720169	38.6152897905558	-2.30100530446038	0.457171972603238	123.912443601803
1142600987.67268	pano_0000_000038	52.3558341370957	4.94061557907726	38.6274351784959	-2.26092545925761	0.124433754856557	124.9143435515
1142600988.43775	pano_0000_000039	52.355859279401	4.94055518676462	38.6255288161337	-1.8159897049513	0.551412813286852	124.390749196882
1142600989.22774	pano_0000_000040	52.3558836125795	4.94049390015154	38.6281439987943	-1.14550267373	0.0319481535058122	123.121258858816
1142600990.04266	pano_0000_000041	52.3559076660434	4.94043237065709	38.6382644297555	-0.747788002198231	0.874944033623841	123.285296539606
1142600990.89769	pano_0000_000042	52.3559319721393	4.94037152101957	38.6327693015337	-0.912156905474239	0.213501827259977	123.438879482047
1142600991.75769	pano_0000_000043	52.355956130014	4.94031042596655	38.6398852402344	-0.26312826081599	0.791415964439566	123.338712775335
1142600992.67766	pano_0000_000044	52.3559805063701	4.94024964852847	38.6337842745706	0.0511620495193477	-0.250139362054143	124.046124202189
1142600993.70255	pano_0000_000045	52.356005300615	4.94018986829435	38.6477377209812	1.08406162170313	0.739008476777611	125.016281872566
1142600994.98762	pano_0000_000046	52.3560311943921	4.94013133757231	38.6213516090065	-0.153453162517129	0.92744720585118	126.053630039211
1142600996.88757	pano_0000_000047	52.3560584329663	4.94007586930247	38.6150990286842	0.0180839774429092	0.295856794402887	130.260408454906
1142600998.83757	pano_0000_000048	52.3560862598332	4.94002187308456	38.6095988880843	0.260303427111372	0.297637473747758	130.299789060506
1142601000.17755	pano_0000_000049	52.356112557054	4.93996474274541	38.618675801903	0.722196668126244	0.444850637419198	124.990744088347
1142601001.41246	pano_0000_000050	52.3561327182118	4.93990111825826	38.6045478340238	0.946215961265344	0.265972947560381	113.54549033758
1142601002.68245	pano_0000_000051	52.356139383545	4.93983046995001	38.6119766607881	0.737353299575925	0.0597158953573395	90.7216286346011
1142601003.9675	pano_0000_000052	52.3561263088436	4.93976156762183	38.6570737008005	0.0606776456278388	0.253295673456818	63.978276173746
1142601005.3175	pano_0000_000053	52.3560895090107	4.93971700340463	38.650897923857	-0.202062668916125	0.698081539387688	24.9467131406452
1142601006.81751	pano_0000_000054	52.3560410668545	4.93971942655375	38.6188012566417	1.07742839474439	0.716374525431423	346.428641399415
1142601009.15746	pano_0000_000055	52.3559960328528	4.93976795691449	38.6019478514791	1.65096459232746	-0.674190497056835	323.641922419487
1142601012.35741	pano_0000_000056	52.3559431681278	4.93978764868991	38.6440438283607	0.983108698118213	0.822301358755253	7.37078920750861
1142601014.90233	pano_0000_000057	52.3559034793403	4.93973891539266	38.6433339267969	0.902639154279517	0.253383082254025	45.4708896972143
1142601019.67732	pano_0000_000058	52.3558704121492	4.93966098477396	38.7548313466832	0.121581047806771	0.588135038933525	57.8299149007761
1142601027.48221	pano_0000_000059	52.3558212527035	4.93958239750471	38.7523248661309	-0.978273043503692	0.594755736896686	29.589826399859
1142601029.14724	pano_0000_000060	52.3557736006818	4.93958174806471	38.7618086785078	-0.604886451050728	0.572842919067053	347.617619811409
1142601030.28761	pano_0000_000061	52.3557346275078	4.93962031984239	38.75208879821	-1.01283275927062	0.32807709400597	323.893938795854
1142601031.25219	pano_0000_000062	52.3557010945675	4.93966959921754	38.7389950826764	-1.19988389269705	0.523980414005121	316.24440412644
1142601032.15218	pano_0000_000063	52.3556687893277	4.93972127656906	38.7241209354252	-1.36494772079626	0.360474082140258	316.092233204543
1142601032.95721	pano_0000_000064	52.3556356369436	4.93977171088897	38.7242499282584	-1.93087130506686	0.10472246667536	317.011679650639
1142601033.67719	pano_0000_000065	52.3556027471217	4.93982200929867	38.7312677754089	-2.20545520658426	0.231767271254944	316.97622919576
1142601034.34717	pano_0000_000066	52.3555695421035	4.9398720413554	38.7226803889498	-2.64601963900181	0.35476714729318	317.400818038376
1142601034.97211	pano_0000_000067	52.3555363207127	4.93992181798073	38.7241845745593	-2.47750826547682	0.217593246132723	317.456444063043
1142601035.56711	pano_0000_000068	52.355503333246	4.93997190600041	38.7168463794515	-2.231022768957	0.408210572082435	317.26131763095
1142601036.14208	pano_0000_000069	52.3554704848711	4.940022156639	38.7152459053323	-1.95280021392233	0.258763797824383	317.060915146937
1142601036.69211	pano_0000_000070	52.3554377265263	4.94007258614761	38.7169102178887	-1.80326611937354	0.328696859170328	316.894308229255
1142601037.2271	pano_0000_000071	52.3554047343484	4.9401231447365	38.7151441983879	-1.63659617097604	0.434833890898864	317.130265740383
1142601037.74709	pano_0000_000072	52.3553719539444	4.94017320680335	38.7106478139758	-1.43686191842921	0.425887048128868	317.212718305619
1142601038.2671	pano_0000_000073	52.3553390623478	4.9402232550778	38.7108107628301	-1.4243762787746	0.581712069751861	317.228069772855
1142601038.79709	pano_0000_000074	52.3553060048119	4.94027317614543	38.7086913120002	-1.37731323306188	0.526473104940814	317.629862051282
1142601039.33707	pano_0000_000075	52.3552725843805	4.94032291084941	38.7002602266148	-1.42112251993714	0.583341282783285	317.924452552612
1142601039.87708	pano_0000_000076	52.3552392626151	4.94037285426682	38.699180864729	-0.959201094831423	0.386128991086466	317.831006645447
1142601040.41705	pano_0000_000077	52.3552058604575	4.94042275251998	38.698229264468	-0.865353973540422	0.557122503325497	317.862548002387
1142601040.96203	pano_0000_000078	52.3551726390406	4.94047215091557	38.7029795777053	-1.05244713707886	0.39324037048485	317.861237024847
1142601041.52203	pano_0000_000079	52.3551391696571	4.94052194306785	38.7189576504752	-1.46303397417192	0.348467490209578	317.68801459537
1142601042.09201	pano_0000_000080	52.3551058702585	4.94057203756249	38.7156688142568	-1.90429639203268	0.604975623475496	317.26992703204
1142601042.67207	pano_0000_000081	52.3550728987621	4.94062253855192	38.7195483446121	-1.77549755846726	0.361698185583874	317.024704410616
1142601043.262	pano_0000_000082	52.3550400440011	4.94067362689131	38.7349601434544	-1.4298037767027	0.0961635058639698	316.623846667527
1142601043.85703	pano_0000_000083	52.3550075558945	4.94072457386946	38.7598449867219	-1.31251354273461	0.185683164648112	316.397644606465
1142601044.46199	pano_0000_000084	52.3549749633778	4.94077613309073	38.7735125087202	-1.29309620181835	0.348115826021299	316.077880523862
1142601045.0672	pano_0000_000085	52.3549428192605	4.94082777722966	38.7868626825511	-1.34420038770387	0.800867196339456	315.312049640602
1142601045.69199	pano_0000_000086	52.3549113381389	4.94088040830984	38.7857010513544	-1.45671637492293	0.526985358107325	314.23526623254
1142601046.34198	pano_0000_000087	52.3548804449317	4.94093429043047	38.7889973912388	-1.1161781564851	0.562492610728611	313.159114994247
1142601047.02211	pano_0000_000088	52.3548500427555	4.94098863046279	38.8178092967719	-1.79865869479952	0.250564379342701	312.145173599013
1142601047.73701	pano_0000_000089	52.3548198723464	4.94104331781429	38.8525565974414	-1.68064473892036	0.600555062241025	312.769006491614
1142601048.49198	pano_0000_000090	52.354788785096	4.94109654037525	38.8502397779375	-1.18403238296424	0.534132494172531	314.803403264142
1142601049.29699	pano_0000_000091	52.3547562749226	4.94114804547112	38.868073749356	-0.745334349766137	0.510794248664171	317.389813765155
1142601050.15697	pano_0000_000092	52.3547219359521	4.94119579375959	38.8866141065955	-1.1695200837795	0.440729347542504	321.033184652826
1142601051.08698	pano_0000_000093	52.3546861851118	4.94124011104595	38.917732979171	-1.44997399793557	0.395196359968479	323.610867487582
1142601052.12693	pano_0000_000094	52.3546528636007	4.94128807961838	38.9761280603707	-1.86507069921698	0.115220810831668	314.937625924342
1142601053.3119	pano_0000_000095	52.3546311233236	4.94135080270899	39.0195815833285	0.5947629626612	0.24722061236499	294.926689619952
1142601054.58188	pano_0000_000096	52.3546164171452	4.94141757072223	39.0283100809902	0.832413593616858	1.03672892440881	290.951464348174
1142601056.0519	pano_0000_000097	52.3546003066552	4.94148337047841	39.1117762001231	-1.92045019470062	0.165770011221102	292.415037357091
1142601057.5169	pano_0000_000098	52.3545834938199	4.94154913543096	39.0664007877931	-0.35170401436847	1.79789910456553	295.663582903314
1142601058.7869	pano_0000_000099	52.3545634728188	4.94161186892625	38.9662200715393	-0.333676010438167	1.33441548043473	300.275890613902
1142601059.96688	pano_0000_000100	52.3545392481542	4.94167020290104	38.8747712178156	-0.583897571836224	1.90695659388383	307.142988859863
1142601061.09683	pano_0000_000101	52.3545112881384	4.94172385679794	38.8333821771666	0.445211246734928	0.443350278583265	313.569217885148
1142601062.04688	pano_0000_000102	52.3544815182209	4.9417726675269	38.8411860764027	0.601361754354667	0.283345101938685	316.271695443129
1142601062.92181	pano_0000_000103	52.3544509493622	4.94182076167859	38.8845139499754	-0.277630068583122	0.820072255306812	316.794036563519
1142601063.76179	pano_0000_000104	52.3544199485872	4.94186973511778	38.8958634305745	-0.0433529817232042	0.885115330254479	316.873849815142
1142601064.5718	pano_0000_000105	52.3543889844557	4.94191884412331	38.9001821111888	0.307839567475872	0.159038726251791	316.682264224534
1142601065.3768	pano_0000_000106	52.3543579942906	4.94196810843403	38.9139173207805	0.0478004618949336	0.799325185208349	316.453138897051
1142601066.22177	pano_0000_000107	52.3543271148349	4.94201733401608	38.9335938906297	-0.241691057973581	0.3634054055457	316.331839779767
1142601067.09175	pano_0000_000108	52.3542965402984	4.94206657613387	38.9405858758837	-0.00623310607615132	0.280023729240239	316.376712368937
1142601068.00695	pano_0000_000109	52.3542658702925	4.94211566654905	38.9558396749198	-0.526532922685416	0.671885173083071	316.226827782435
1142601068.98171	pano_0000_000110	52.3542358474434	4.94216529428067	38.9735743077472	-0.406860758651423	0.503283479829527	314.640200823823
1142601070.03211	pano_0000_000111	52.3542079018195	4.94221818497491	38.984959224239	0.9108827278076	0.65252900550114	311.604294289579
1142601071.15172	pano_0000_000112	52.354178637842	4.94226925363411	39.022968897596	0.685841839755384	-2.33624604165781	315.489380339129
1142601072.23672	pano_0000_000113	52.3541465281907	4.94231617223486	38.987751968205	0.765635580602814	-0.0455037756919491	319.759889514157
1142601073.20167	pano_0000_000114	52.3541138444612	4.94236350345822	38.9990767240524	0.922208907566481	0.846546539621385	318.93849712597
1142601074.0867	pano_0000_000115	52.3540814355548	4.94241145796495	39.0113784391433	0.283639231150163	-0.290151438921019	317.927708696435
1142601074.94666	pano_0000_000116	52.3540493432707	4.942460536431	39.0080484040082	0.388297975337718	1.1138894712381	317.531435054888
1142601075.80161	pano_0000_000117	52.3540173047042	4.94251000986033	39.0040387958288	0.329654914494242	0.4817242782025	316.844230641051
1142601076.64161	pano_0000_000118	52.3539855075659	4.9425600281612	39.0108020575717	0.0366414004548482	-0.0917458191404957	316.632361748129
1142601077.4716	pano_0000_000119	52.353953521083	4.94260944889417	39.0206492198631	-0.123334453600042	-0.0506208051264626	317.197660611804
1142601078.31661	pano_0000_000120	52.3539211171895	4.94265864760427	39.0500671090558	-0.752478199855774	0.197230149006914	317.209329491425
1142601079.19158	pano_0000_000121	52.3538894395773	4.9427094543747	39.0799465598539	-0.0692909041277569	0.676835935663149	315.863575987141
1142601080.09167	pano_0000_000122	52.3538580354983	4.94276072755139	39.0850559510291	-0.0328486075416409	0.485291351043161	315.479952409254
1142601080.98658	pano_0000_000123	52.3538265625035	4.94281163092653	39.0765022467822	0.240304023229661	0.70910570112176	316.187265783324
1142601081.89153	pano_0000_000124	52.3537935403007	4.94286092628716	39.0515292128548	0.0506638255325865	0.649279509476918	318.625823502968
1142601082.82657	pano_0000_000125	52.3537599082054	4.94290924122259	39.0727874515578	-1.15693543352721	0.741258868843149	318.241871387229
1142601083.82654	pano_0000_000126	52.3537267590255	4.94295903558661	39.0570405870676	-0.229733686808153	0.884544976145546	319.755337837179
1142601084.8615	pano_0000_000127	52.3536908402781	4.94300343181996	39.0494965948164	-1.07493384548786	0.53600917357413	323.17727423342
1142601085.89654	pano_0000_000128	52.3536569517249	4.943050536745	39.0495406314731	-0.9040120990992	0.45656351138254	318.042360680929
1142601086.87148	pano_0000_000129	52.353626440841	4.94310379030604	39.0700984094292	1.28229094249544	-0.20687952992762	313.009760646995
1142601087.78148	pano_0000_000130	52.353595862447	4.94315663574635	39.0391588909552	-1.38573231250876	1.15265182548203	312.947486523141
1142601088.68147	pano_0000_000131	52.3535655079855	4.94320999974353	39.0413970882073	-0.0263535407472018	0.196392906338038	314.325950065029
1142601089.59653	pano_0000_000132	52.353533764042	4.94326128714132	39.0248734140769	0.224684351081845	0.94213812099921	315.991437288783
1142601090.54146	pano_0000_000133	52.3535014994257	4.9433117715362	39.0237626144663	-0.281637450184622	-0.4289548678247	316.456580166199
1142601091.49649	pano_0000_000134	52.3534695033473	4.94336235289458	39.0252852980047	-0.0471264542735452	0.561043505449981	316.333215705823
1142601092.48143	pano_0000_000135	52.353437158451	4.94341287722136	39.0219856854528	-0.728603069537755	0.622736100913827	316.521891134904
1142601093.50645	pano_0000_000136	52.35340480862	4.94346318608395	39.0191499078646	-0.0173277057681744	0.536409681430129	317.261398538183
1142601094.5814	pano_0000_000137	52.3533716656811	4.94351208716482	38.9999110773206	-0.560525150757311	0.0313501819111634	318.307839534953
1142601095.70146	pano_0000_000138	52.3533380983558	4.94356065168653	39.012660799548	-0.220936742730166	-0.276377832268085	318.899808304667
1142601096.91644	pano_0000_000139	52.3533046228697	4.94360917350801	39.0219574300572	-0.16970351443307	0.822476059310467	318.475535445493
1142601098.68135	pano_0000_000140	52.3532711332654	4.94365790350062	39.0685057286173	-1.69044412597466	-1.21390908907521	317.827107301239
1142601100.71633	pano_0000_000141	52.3532383292776	4.94370873425173	39.1942772129551	-0.513787630185242	-0.689208092101423	316.93711895943
1142601102.05139	pano_0000_000142	52.35320742509	4.94376346643336	39.2579292310402	-0.241868219573821	0.439981351741265	311.244229988448
1142601103.1713	pano_0000_000143	52.3531779816178	4.94381994023249	39.1952173113823	-0.546844227831669	1.59088898470426	311.346328603283
1142601104.32627	pano_0000_000144	52.3531472587764	4.94387420071619	39.0573439532891	0.82545290088036	1.44753338463073	314.39241463607
1142601105.45129	pano_0000_000145	52.3531147143416	4.94392734587759	39.0392978554592	1.12515808773591	0.367782476748137	315.643443841355
1142601106.40127	pano_0000_000146	52.3530820666124	4.94398058044182	39.0445638298988	0.874089110039742	0.274774472491287	315.338417841413
1142601107.23132	pano_0000_000147	52.3530494524308	4.94403373721092	39.0573946107179	1.1899846207049	0.550552716895004	315.66309416846
1142601108.03637	pano_0000_000148	52.3530165786848	4.94408645194044	39.0626678559929	1.04819973233183	0.221720168959644	315.983161423387
1142601108.81128	pano_0000_000149	52.3529836147505	4.94413887936655	39.0722953509539	1.11829758077009	-0.334215599204029	316.25662634957
1142601109.56126	pano_0000_000150	52.3529507466643	4.94419111659802	39.0944513836876	1.18953479752709	-0.668454497451077	316.062203981871
1142601110.29623	pano_0000_000151	52.3529180653076	4.94424379544031	39.0839680256322	1.21981693657345	0.161018371557995	315.725381316739
1142601111.01634	pano_0000_000152	52.3528854091543	4.94429616820318	39.0890471348539	1.41297458192616	0.592078440394304	316.150334714754
1142601111.72621	pano_0000_000153	52.3528524129772	4.94434797617174	39.057252031751	1.13558012349936	-0.189927960250529	316.584498273625
1142601112.42618	pano_0000_000154	52.3528192164421	4.94439971078399	39.0725584244356	1.4681475208282	0.265885558630528	316.968106643204
1142601113.12618	pano_0000_000155	52.3527856858983	4.94445115110101	39.0996625423431	1.1624893629765	0.411215224951953	316.965404813869
1142601113.83121	pano_0000_000156	52.3527528488569	4.94450305768287	39.1010883813724	1.82823242902265	0.731081983373838	316.258834596798
1142601114.55114	pano_0000_000157	52.3527202534409	4.94455516274045	39.0938438493758	2.6158061413717	1.0951725194731	316.232952480939
1142601115.29118	pano_0000_000158	52.3526873069567	4.94460718357437	39.1061112685129	1.88430401399738	0.850241774445273	316.217775268602
1142601116.05112	pano_0000_000159	52.3526544153378	4.94465885906106	39.1082257796079	1.10275710143002	0.977964020712801	316.139049807466
1142601116.86112	pano_0000_000160	52.3526213980951	4.94471065010603	39.1169472606853	0.974390765682832	0.192073214895462	316.535032503475
1142601117.73112	pano_0000_000161	52.3525881842421	4.94476200128847	39.1265800492838	0.890329044182224	0.422511471374392	316.936557270513
1142601118.78109	pano_0000_000162	52.3525548933342	4.94481343927049	39.1331999776885	0.751501006621803	0.907617082022354	316.681996216853
1142601120.23605	pano_0000_000163	52.3525225841485	4.94486660743343	39.1848163809627	0.759423241345023	-3.01194007796538	311.847786346266
1142601121.71604	pano_0000_000164	52.3525032800048	4.94493375172874	39.3147781267762	1.015874894958	0.277036262751758	285.047382839035
1142601122.93104	pano_0000_000165	52.3525092380233	4.94500567968343	39.296618768014	0.505514739107861	0.682594151836764	255.266105301729
1142601124.00125	pano_0000_000166	52.3525299294568	4.94506943670302	39.2051925417036	-2.08693899502746	1.48629206592655	237.448535155098
1142601125.01617	pano_0000_000167	52.3525594123042	4.94512537479555	39.1339571317658	-2.08502410007729	0.74865501758363	227.48879070034
1142601125.92599	pano_0000_000168	52.3525917637306	4.94517719515597	39.1203405354172	-2.38357062742242	0.358111003452565	224.598702163758
1142601126.76609	pano_0000_000169	52.3526243199096	4.94522900346757	39.1132828565314	-2.43364364735803	0.455865923467354	225.067364945836
1142601127.59106	pano_0000_000170	52.35265562569	4.94528211457821	39.0765669262037	-4.64756937026134	0.763591216936787	225.981136189607
1142601128.45597	pano_0000_000171	52.3526870152268	4.94533517764268	39.1703869923949	-2.76836789352661	-1.34167973061511	227.57922101685
1142601129.32101	pano_0000_000172	52.3527176895621	4.9453895712098	39.3232190255076	-1.9989122592014	-0.27817832800799	227.982412489988
1142601130.16096	pano_0000_000173	52.3527485997295	4.94544316227827	39.3084655506536	-1.46196938343082	2.12918553805696	226.94924595918
1142601131.00612	pano_0000_000174	52.3527799259843	4.94549572029486	39.2422089045867	-1.25777467768057	0.599293072935755	225.963153663098
1142601131.88095	pano_0000_000175	52.3528119412314	4.9455471815481	39.2592474976555	-0.175069042094919	-0.640592693792985	225.399452441662
1142601132.76597	pano_0000_000176	52.3528436722154	4.94559882656748	39.2722969809547	-0.0523202988334912	0.723854796147909	225.77740936144
1142601133.64095	pano_0000_000177	52.3528745428456	4.94565188619602	39.2312312079594	-2.08966696705144	-0.228264514236851	226.128810164689
1142601134.46093	pano_0000_000178	52.3529059004129	4.94570413978938	39.2345285583287	-1.89503869355069	0.351127261168569	225.864848732581
1142601135.25594	pano_0000_000179	52.3529373558139	4.94575599683398	39.2337882677093	-1.6483895929654	0.695898190582367	225.52622368159
1142601136.06092	pano_0000_000180	52.3529688590116	4.94580745100406	39.1955986758694	-1.66554488743816	1.15256779082713	225.188128615982
1142601136.90586	pano_0000_000181	52.3530005325644	4.94585855585191	39.2100633168593	-1.70319485189793	0.226431304841081	224.827704608783
1142601137.80096	pano_0000_000182	52.3530325579608	4.94590893750332	39.2387840040028	-0.910629378961597	0.0690558957379304	224.459452351566
1142601138.74586	pano_0000_000183	52.3530643927172	4.94595932524897	39.2150047533214	-1.38173998589668	1.4577548229144	224.267821770311
1142601139.76583	pano_0000_000184	52.3530958419663	4.94600968356194	39.2062048614025	-0.976000402511643	0.48501487187127	225.799682432147
1142601140.95582	pano_0000_000185	52.3531201451731	4.9460688459095	39.2437920439988	-0.147787264003727	0.0993186689978254	244.361780880255
1142601142.34083	pano_0000_000186	52.3531175186706	4.94613856832648	39.2960939258337	1.00843334895381	-0.419067261328531	287.093892614242
1142601143.61578	pano_0000_000187	52.3530931008267	4.94619872151765	39.3137627076358	1.92908873171229	-0.0433688954743705	308.359033524593
1142601144.6858	pano_0000_000188	52.3530630779638	4.94625315359103	39.3015678310767	2.33467071419751	0.591777361771143	314.581119589149
1142601145.63577	pano_0000_000189	52.353030386864	4.94630332610604	39.2903819875792	1.89375830418747	0.722153988305577	318.182863314449
1142601146.50578	pano_0000_000190	52.3529974584759	4.94635296789224	39.2653618808836	2.75862400284544	0.619024892547507	317.88048568297
1142601147.33576	pano_0000_000191	52.352965326728	4.94640396281967	39.2507145814598	2.34487133771306	0.448768583978602	316.073304140608
1142601148.12574	pano_0000_000192	52.3529339309113	4.94645597201219	39.2381526529789	3.74071538264941	1.30477687456174	315.809972537009
1142601148.89077	pano_0000_000193	52.3529022170807	4.94650730189286	39.2263885037974	3.30227174764659	0.11355701133601	316.016370333417
1142601149.64078	pano_0000_000194	52.3528705964743	4.94655840382624	39.2141166804358	3.62547224624794	0.943363489193979	316.370591124799
1142601150.42075	pano_0000_000195	52.3528386703274	4.94660929579743	39.2009187554941	3.54393931022825	1.07300788004356	316.567009342116
1142601151.25576	pano_0000_000196	52.3528068160875	4.94665994242428	39.2125535514206	3.45023408875462	0.0802345129533128	316.613102175169
1142601152.15073	pano_0000_000197	52.3527750897427	4.94671057194821	39.2104844264686	2.67526027017062	0.502392317577439	316.04820208997
1142601153.12577	pano_0000_000198	52.3527437478594	4.94676154589653	39.19334575627	2.6699450477417	0.718084233205521	315.989204679379
1142601154.17581	pano_0000_000199	52.3527124842812	4.94681202762137	39.167384667322	2.21803425973227	0.943701080786256	316.054695177424
1142601155.31572	pano_0000_000200	52.352681553251	4.94686247851186	39.2397846439853	2.24787098727149	3.41784086641411	316.163755767308
1142601156.44065	pano_0000_000201	52.3526502925623	4.94691221085399	39.1742403311655	1.43424782904196	0.0744955283747822	316.423901405706
1142601157.47569	pano_0000_000202	52.3526187547803	4.94696202895865	39.1662323689088	0.815505019439153	0.344266106601864	316.523428257665
1142601158.47565	pano_0000_000203	52.3525867536703	4.94701188302966	39.152124623768	0.734851129160071	0.538850196768064	317.237942339552
1142601159.45061	pano_0000_000204	52.3525546296764	4.947061331477	39.1294719520956	1.46609664012607	0.660582127425111	317.664357774824
1142601160.39562	pano_0000_000205	52.3525229559066	4.94711176470291	39.0939287049696	2.20286364761211	0.921152667689335	316.299818309173
1142601161.33562	pano_0000_000206	52.352491620978	4.94716272099803	39.0647081267089	2.35134443263516	-0.0942760186280242	315.563711165565
1142601162.29563	pano_0000_000207	52.3524602593101	4.94721357999972	39.0547357397154	1.83117608368497	0.19257815075701	315.699995295266
1142601163.28056	pano_0000_000208	52.352428837239	4.94726389240508	39.0288670063019	1.48894745576191	0.676042680881754	316.076533837757
1142601164.33055	pano_0000_000209	52.3523970947219	4.94731410517345	39.0101129394025	1.51262477666696	0.351864076758866	316.408937433956
1142601165.58559	pano_0000_000210	52.3523654975484	4.94736421209538	38.9926998764277	1.49379174161376	0.232633398577057	315.386123482309
1142601167.05051	pano_0000_000211	52.3523350506148	4.94741616257909	38.973702326417	1.06987119368155	0.546544055902538	313.34916936752
1142601168.93551	pano_0000_000212	52.3523029246558	4.94746327944035	38.9361013434827	1.78256091237459	0.996942863147574	325.775526660786
1142601170.92549	pano_0000_000213	52.3522593810236	4.94746558382587	38.8430150533095	0.257872915298186	1.36073506652038	10.5905040875839
1142601172.61046	pano_0000_000214	52.3522234851441	4.94742011248667	38.7571384683251	-1.20047779053604	0.724859336268916	45.0519115114804
1142601174.04061	pano_0000_000215	52.3521909695161	4.94736367285989	38.7036134963855	-2.08625346584888	0.21053047120736	46.2684248693752
1142601175.49544	pano_0000_000216	52.3521571280747	4.94730730934908	38.682886429131	-1.07280020544431	0.222617919389475	46.2726906468457
1142601177.28701	pano_0000_000217	52.352123321344	4.9472489063261	38.6381057342514	-1.4186716712374	0.592021334088763	47.227208851821
1142601179.31037	pano_0000_000218	52.352090184334	4.94718836557583	38.569918975234	-2.05030337597325	0.0498786547116664	48.5149507574865
1142601180.93541	pano_0000_000219	52.352056818137	4.94713090732547	38.5524751190096	-1.84447946703833	-0.0463109773546824	45.7578531422973
1142601182.51034	pano_0000_000220	52.3520216212117	4.94707740651439	38.5299717681482	-1.71484596926715	0.875260799072093	42.4401827909808
1142601184.25543	pano_0000_000221	52.3519859040132	4.94702464361691	38.5417797062546	0.501191739534805	-0.0804645526618396	45.8048001401631
1142601186.17533	pano_0000_000222	52.3519705070051	4.94695344181079	38.559065669775	1.96036489199742	0.120935937364252	88.6765868012994
1142601187.76531	pano_0000_000223	52.3519917181653	4.94689017389516	38.5267532328144	2.19826697652608	0.859823129077368	127.609062807818
1142601189.1753	pano_0000_000224	52.3520227961304	4.94683774809784	38.4691484645009	2.13936401401033	0.566434556277296	136.169346605251
1142601190.73527	pano_0000_000225	52.3520556331228	4.94678750793763	38.4707538168877	1.52495252447345	0.673386896009221	137.320539895626
1142601192.67023	pano_0000_000226	52.3520887841684	4.94673749380414	38.520528244786	1.85408753331459	-0.218270603888716	138.591188092321
1142601194.46527	pano_0000_000227	52.3521218524212	4.94668797450813	38.5130188120529	2.09834028814543	0.850554615356927	136.790446505868
1142601195.89521	pano_0000_000228	52.352153719215	4.94663668129638	38.3853801805526	2.25024906419414	-0.326487059806045	136.392361411782
1142601197.18019	pano_0000_000229	52.3521859550676	4.94658629717951	38.4010880757123	2.17107198800814	0.283105624094668	136.866604575422
1142601198.54013	pano_0000_000230	52.3522184441655	4.94653571762305	38.3607582030818	1.6094824937643	0.655745630094535	136.627708449618
1142601200.04519	pano_0000_000231	52.3522506758409	4.94648479059335	38.4400724638253	1.14739550682461	0.131247091431295	136.146724771677
1142601201.64009	pano_0000_000232	52.3522828781741	4.94643378066894	38.4421611605212	1.82182015235754	0.542139123874093	136.827622654781
1142601203.11008	pano_0000_000233	52.3523150786396	4.94638309217653	38.3234775587916	1.95779467667031	1.00025695462614	136.945557079346
1142601204.42008	pano_0000_000234	52.3523474369643	4.94633262353275	38.3109416831285	1.79499725669379	0.25376635271403	136.727774102664
1142601205.73007	pano_0000_000235	52.3523794190676	4.94628223544501	38.2942418558523	1.4653172263603	0.795044947492009	136.6538826981
1142601207.08513	pano_0000_000236	52.3524110897136	4.94623104333764	38.3419172465801	2.65438862010032	-0.602050402471583	136.3568273943
1142601208.46505	pano_0000_000237	52.3524429003971	4.94618006857163	38.3733094716445	2.41015737241195	1.00323899225735	136.429555974777
1142601209.88003	pano_0000_000238	52.3524747276338	4.94612960551423	38.3151419209316	2.19295483675416	1.37642294627273	136.908405155613
1142601211.27501	pano_0000_000239	52.3525069879652	4.94607922446052	38.2651395890862	2.4291375909878	1.34560244220595	137.189415748827
1142601212.63001	pano_0000_000240	52.3525394299833	4.94602916378066	38.2605211390182	1.6984325951313	0.518227358138374	137.191642268589
1142601214.07997	pano_0000_000241	52.3525716809749	4.94597889613167	38.3121186597273	1.44319655436062	-2.08213558772443	136.783003179897
1142601215.63998	pano_0000_000242	52.3526041224205	4.94592760472634	38.4031213214621	1.45291076278549	0.548838593626974	136.862514420899
1142601217.10995	pano_0000_000243	52.3526370772268	4.94587566600123	38.3343655364588	1.53347829435803	1.49769109920913	136.540514969079
1142601218.49494	pano_0000_000244	52.352669678554	4.94582314432127	38.293837283738	1.39415505942864	0.178789869821417	135.797089802298
1142601219.8949	pano_0000_000245	52.3527025425407	4.94577081662094	38.3290389850736	0.806863227128772	0.636060505467776	136.522783049023
1142601221.52492	pano_0000_000246	52.352736207981	4.94571989257497	38.4346494199708	0.603209304949132	-0.512664436592131	138.088688364173
1142601223.62489	pano_0000_000247	52.3527705152801	4.94566920601729	38.4809515289962	0.419336739393092	2.4117735309846	137.452522861264
1142601225.72486	pano_0000_000248	52.3527972371975	4.94560798485922	38.4349863184616	1.01194449754937	1.00580928975168	119.026562128934
1142601227.05979	pano_0000_000249	52.3528039233086	4.94553768393924	38.3964759856462	-0.156293365848171	0.395172162339465	88.6689552756215
1142601228.31483	pano_0000_000250	52.3527839399164	4.94547372470641	38.449527695775	-0.718730035153539	0.0304618865726264	56.3083079945587
1142601229.49973	pano_0000_000251	52.3527537519498	4.9454193150647	38.5578504912555	0.352461708735915	-1.11597353926836	46.6082018007417
1142601230.58973	pano_0000_000252	52.3527210705344	4.94536731495493	38.5823308015242	0.830024392907944	1.32700174122363	45.6277476623306
1142601231.6348	pano_0000_000253	52.3526883395962	4.94531570544212	38.4644906725734	3.80677724862483	1.28837401477336	46.5058020679091
1142601232.70478	pano_0000_000254	52.3526569923993	4.94526262343561	38.4205076359212	3.84696594022721	0.211045975882102	47.6561002628606
1142601233.82969	pano_0000_000255	52.3526266326708	4.94520854731638	38.4538659611717	2.0095380471274	0.153064291562436	47.9970160259894
1142601235.00987	pano_0000_000256	52.3525962032945	4.94515537506358	38.4544136058539	0.553156137605362	0.542671020615246	47.216006784984
1142601236.26475	pano_0000_000257	52.3525652992578	4.94510363263599	38.4905786458403	-0.0739719659247295	0.1349844615764	46.4526204737368
1142601237.62473	pano_0000_000258	52.3525337890605	4.94505404118474	38.5671398658305	-0.160068774206642	-2.08303416269213	44.4467731396282
1142601239.11958	pano_0000_000259	52.3524986782392	4.94501276404974	38.6774252336472	0.603618815337082	-0.301228755377993	33.1898912216853
1142601240.51464	pano_0000_000260	52.352460019611	4.94498664871916	38.7438676515594	-0.289702907255903	0.258520461956183	15.4553218083781
1142601241.78957	pano_0000_000261	52.3524190225176	4.9449981625225	38.725170112215	-1.15775110166053	1.12434551997022	341.333284611229
1142601243.01479	pano_0000_000262	52.352386729484	4.94504680586066	38.5790527714416	-1.63466435056196	0.290129458346708	310.452912512443
1142601244.11462	pano_0000_000263	52.352360365559	4.94510779220351	38.6082447525114	0.918577771425394	0.119488745707826	307.331015330258
1142601245.06459	pano_0000_000264	52.3523312903565	4.94516566812832	38.59844098147	1.95014138205666	0.297881445018872	311.551435519378
1142601245.92951	pano_0000_000265	52.3522997108703	4.94522033925307	38.6084971316159	1.57304902016741	0.568512537519153	314.388403776942
1142601246.76949	pano_0000_000266	52.3522674618137	4.94527390676604	38.6215387722477	1.26417496266899	0.284470450717377	314.944255552088
1142601247.62459	pano_0000_000267	52.3522353744943	4.945327430667	38.6164976507425	1.93641001457424	-0.0825059839406778	315.305334572221
1142601248.51456	pano_0000_000268	52.3522026826953	4.94537997079149	38.6418531620875	1.87493674979587	0.599960927461668	316.344019884971
1142601249.45453	pano_0000_000269	52.3521695198999	4.94543130570229	38.6769407736138	1.01398770870986	-0.0602082743982486	316.8227489275
1142601250.42457	pano_0000_000270	52.3521365628666	4.94548278021432	38.6951723247766	1.4657757872241	0.477709204390083	316.921227896078
1142601251.39453	pano_0000_000271	52.352103711591	4.94553402620993	38.69496710971	1.58041251757977	0.667906091980423	316.81881432819
1142601252.37454	pano_0000_000272	52.3520709625082	4.94558535001192	38.7015683585778	1.75315982604298	0.512249378229258	316.653064145041
1142601253.36449	pano_0000_000273	52.3520383109999	4.94563649362785	38.7145414883271	1.67243921828059	0.741852563073255	316.558330364454
1142601254.35451	pano_0000_000274	52.3520055470009	4.94568699238395	38.7236683694646	1.67229224337063	0.707087710196631	317.272716840686
1142601255.3245	pano_0000_000275	52.351972599501	4.945736754802	38.7259553419426	2.28097185473441	0.632878892278887	317.998994441683
1142601256.2794	pano_0000_000276	52.3519393144583	4.94578548966152	38.7333876760677	2.19903792068826	0.272616469987088	318.58345067805
1142601257.2794	pano_0000_000277	52.3519057158113	4.94583362599302	38.7351244548336	1.14850152642817	0.316952279812968	318.61917134533
1142601258.37449	pano_0000_000278	52.3518725905309	4.94588205551749	38.7874851943925	0.202866877522643	-1.55046947221619	317.658786727314
1142601259.53442	pano_0000_000279	52.3518406884157	4.94593206784001	38.7587247276679	0.529006600332337	1.00511009766124	316.204539379451
1142601260.68445	pano_0000_000280	52.3518070720892	4.94597977304013	38.7771095223725	0.346943192550873	0.334927356929563	321.939138606234
1142601261.78933	pano_0000_000281	52.3517730307986	4.94602675763665	38.802656698972	0.668663440232503	-0.0138819483724963	319.047301663657
1142601262.84439	pano_0000_000282	52.3517410577718	4.94607704788995	38.8167811771855	0.765048248683542	0.316115494462666	315.493728601677
1142601263.88931	pano_0000_000283	52.3517104089628	4.94612922383761	38.8080857675523	0.143109394404903	0.624091209164086	313.453313167306
1142601264.88438	pano_0000_000284	52.3516809994652	4.94618360000356	38.7746352767572	0.846053463671454	1.11525885303333	311.862249165801
1142601265.93438	pano_0000_000285	52.3516504147022	4.94623632276559	38.7880244115368	1.35398748109942	0.309902404486354	315.659643697132
1142601267.1493	pano_0000_000286	52.351616477326	4.94628262502153	38.8002301054075	1.27252758436477	0.753528026612687	323.987808003889
1142601268.98433	pano_0000_000287	52.3515783512839	4.9463135883493	38.8276805048808	-1.99949658364321	0.242139492584486	333.821842578805
1142601271.29433	pano_0000_000288	52.3515451715207	4.94634088113101	38.9741542143747	-1.10818617475146	-0.236224975983232	334.066066888563
1142601273.27432	pano_0000_000289	52.3515101690131	4.94636944626014	38.9918092368171	1.55446773724787	2.56146061850347	337.75274024031
1142601274.85426	pano_0000_000290	52.3514704074181	4.94636124586385	38.9603318851441	-0.204870170332919	0.0573387788704898	21.7905325737615
1142601276.00931	pano_0000_000291	52.3514388382002	4.9463152843289	38.9612347697839	-1.0378985627995	-0.0174834491146492	44.0951945691785
1142601276.90923	pano_0000_000292	52.3514096056226	4.94626432916116	38.9567581927404	-1.14513260955903	0.541122227437575	45.9052153224251
1142601277.69426	pano_0000_000293	52.3513794508148	4.94621295953368	38.9438857669011	-0.887833993744399	0.316444657345893	46.056984841838
1142601278.39922	pano_0000_000294	52.3513492181159	4.94616124292771	38.9462046604604	-0.748669261322008	0.293440838661911	46.1290623684781
1142601279.04914	pano_0000_000295	52.3513188624409	4.94610929069941	38.9435089183971	-0.76674523475692	0.237119006679912	46.195211477861
1142601279.65914	pano_0000_000296	52.3512883962217	4.94605669076882	38.9389490485191	-1.01783017061118	0.399066043557759	46.4313951372666
1142601280.23419	pano_0000_000297	52.3512580795655	4.9460040192517	38.9327657595277	-1.07430418467956	0.312501383924867	46.7272537939615
1142601280.78415	pano_0000_000298	52.3512277238221	4.94595093545894	38.9340795641765	-1.29407478019731	0.275659333821918	46.8220816342938
1142601281.30914	pano_0000_000299	52.351197335224	4.94589829756465	38.938137376681	-1.39861715452304	0.286474627085279	46.4693889868586
1142601281.81913	pano_0000_000300	52.351166666733	4.94584560182053	38.9332112735137	-1.54839210836363	0.689513257741469	46.2912140179376
1142601282.32911	pano_0000_000301	52.3511360219253	4.94579328534439	38.9247684888542	-1.71946156059954	0.619144661456692	46.1056538027024
1142601282.84414	pano_0000_000302	52.3511052970164	4.94574105241084	38.9265624862164	-1.80694831956862	0.441820794898973	46.0729857540784
1142601283.35927	pano_0000_000303	52.3510745099097	4.94568882756522	38.9293243587017	-1.78448931914773	0.549880965124973	46.0304890819358
1142601283.87412	pano_0000_000304	52.3510435076778	4.94563663408706	38.9302917830646	-1.49524145126421	0.541912989420013	45.95935335112
1142601284.38413	pano_0000_000305	52.3510127102669	4.94558474430334	38.9252595044672	-1.42448397640248	0.691200936235183	45.9293050090384
1142601284.89413	pano_0000_000306	52.350981910139	4.94553298015491	38.9243852095678	-1.30375734546154	0.418666436723774	45.9554420209576
1142601285.40908	pano_0000_000307	52.3509510797921	4.94548092984077	38.9383377842605	-1.6765066524461	0.588153799997754	45.8387743081017
1142601285.93411	pano_0000_000308	52.3509200705184	4.94542893432509	38.9483086923137	-1.72722586140008	0.549032106200361	45.7634038504265
1142601286.46908	pano_0000_000309	52.3508888628522	4.94537677648893	38.95545363985	-1.70723099701711	0.666817236918017	45.7337465682327
1142601287.01429	pano_0000_000310	52.3508575954215	4.9453245056295	38.9600242851302	-1.72189940636086	0.581540729791998	45.7927226835752
1142601287.56906	pano_0000_000311	52.3508263807672	4.94527207446536	38.9632179876789	-1.81848388960573	0.641042019853959	45.9178086108512
1142601288.13408	pano_0000_000312	52.3507954476484	4.9452198229193	38.972022161819	-1.814582079819	0.579023471087326	46.147490511753
1142601288.71406	pano_0000_000313	52.3507646094598	4.94516746867767	38.9802648341283	-1.76485373941076	0.665120339461494	46.2719562576504
1142601289.31408	pano_0000_000314	52.3507336044531	4.94511477048203	38.9859690181911	-1.65909595167812	0.512501987709011	46.3497259266919
1142601289.92405	pano_0000_000315	52.3507027338283	4.94506212367062	39.0024766288698	-1.66143330221598	0.528638582974484	46.4407970328957
1142601290.54902	pano_0000_000316	52.3506718599444	4.9450091150653	39.0170578537509	-1.96730535432484	0.593060908126185	46.5157761029616
1142601291.189	pano_0000_000317	52.3506409360563	4.9449561771929	39.0261971112341	-1.84143448625505	0.682149968626842	46.5736861760149
1142601291.84901	pano_0000_000318	52.3506099535658	4.94490315833907	39.0388185633346	-1.69339327544282	0.49858835693024	46.6230443524722
1142601292.52404	pano_0000_000319	52.3505789758499	4.94484987673949	39.0580996284261	-1.3676382524981	0.510006499947952	47.0412059652989
1142601293.209	pano_0000_000320	52.3505485586386	4.94479593054222	39.0724894339219	-1.27291403544714	0.473857972949702	48.0046442262046
1142601293.90899	pano_0000_000321	52.3505185317402	4.94474119492466	39.0925218323246	-1.18883303803193	0.454745430564735	48.6121247925986
1142601294.62897	pano_0000_000322	52.3504887101479	4.9446861013494	39.0846577528864	-1.36680584514595	0.880700305695335	48.9010616735044
1142601295.41897	pano_0000_000323	52.3504588900728	4.94463084604122	39.0982332220301	-1.25115434125122	0.770675141289886	48.953879727798
1142601296.36894	pano_0000_000324	52.3504287387213	4.94457587420301	39.1264691762626	-1.47060409416577	0.58790233538883	48.2908214979918
1142601297.57395	pano_0000_000325	52.3503977930807	4.94452184532961	39.1619166089222	-1.28746854653289	0.428942620761198	46.9761921140501
1142601298.85893	pano_0000_000326	52.3503658074435	4.94446903749205	39.2194612873718	-1.4869431153476	0.0864655421595819	45.466808312582
1142601300.28895	pano_0000_000327	52.350334068699	4.94441599820582	39.2604757128283	-1.4040850559667	0.571490854814734	48.9483150793429
1142601302.0839	pano_0000_000328	52.3503147883392	4.94434925323333	39.348305862397	3.53228345962069	-1.16700237090033	78.743760052396
1142601303.65893	pano_0000_000329	52.3503206165283	4.94427774475537	39.5042984979227	0.30996248842855	0.783745351919247	102.841495228615
1142601304.96387	pano_0000_000330	52.3503373208031	4.9442105160898	39.4912842214108	-0.163924629488859	1.01918517970697	116.464933655501
1142601306.21891	pano_0000_000331	52.3503598351329	4.94414812191099	39.4481170019135	0.543068301392447	2.03195285394529	123.246259526709
1142601307.43387	pano_0000_000332	52.3503864591507	4.94409042705164	39.4669905044138	0.92826418314581	0.715436574002457	129.597597178431
1142601308.57384	pano_0000_000333	52.3504166433428	4.94403795170938	39.5057861013338	1.09261895768812	0.232240957085982	135.767681796789
1142601309.74882	pano_0000_000334	52.3504522969883	4.94399710680165	39.5892040915787	-0.00173513039889556	-2.50097389315895	150.899385372845
1142601310.98881	pano_0000_000335	52.350493756829	4.94398050158262	39.6514344736934	-2.47249168704622	0.711793437938092	172.841296443739
1142601312.21381	pano_0000_000336	52.3505354838321	4.94398994923435	39.6417767796665	-1.46456654140963	0.176018621825015	194.237476445321
1142601313.3638	pano_0000_000337	52.3505745860545	4.9440211133164	39.5261984560639	-0.161479099906441	0.0211417935595811	210.645763721822
1142601314.38877	pano_0000_000338	52.3506100150746	4.94406555611171	39.5690786456689	-0.210358886152823	-0.327371417462841	219.120915824958
1142601315.30375	pano_0000_000339	52.3506431789259	4.94411447838582	39.5994638754055	0.111409618524083	0.354704151427459	223.023125656305
1142601316.20376	pano_0000_000340	52.3506754514781	4.94416676619131	39.5923572527245	-0.59493507957913	0.0689006169911222	225.125971840646
1142601317.09373	pano_0000_000341	52.3507071320589	4.94422093587535	39.6058015264571	-1.29950980732836	0.955000116698449	226.404692635926
1142601318.02892	pano_0000_000342	52.3507387373926	4.94427535408812	39.6165238218382	-1.23259576522997	0.0415211071842208	226.713412819341
1142601319.01886	pano_0000_000343	52.3507702764712	4.94432938567887	39.6428690161556	-0.462534430367366	0.694392575162153	226.904335747975
1142601320.08864	pano_0000_000344	52.3508016698596	4.94438330225817	39.660107806325	-0.0663198248598088	0.548776191611806	226.923917775246
1142601321.25872	pano_0000_000345	52.3508325598329	4.94443719742423	39.6883365111426	-1.13801378554417	0.84344991967512	226.882920143416
1142601322.54863	pano_0000_000346	52.3508634579774	4.94449009406144	39.7116898549721	-1.5041764166482	0.640006900199179	226.853624383277
1142601323.9586	pano_0000_000347	52.3508947112354	4.94454147873205	39.7128622308373	-1.61370637947582	1.10254136336164	224.532453556192
1142601325.40859	pano_0000_000348	52.350935200513	4.94456792145262	39.7081263726577	0.576844178299549	1.59091909622024	190.937851635682
1142601326.6986	pano_0000_000349	52.3509769633243	4.94454590857198	39.7448476823047	1.77651089365406	0.100598536142178	153.696655658334
1142601327.88358	pano_0000_000350	52.3510125820634	4.94450001026939	39.7779723443091	1.7916689306458	0.33947186702315	139.832235797519
1142601329.06858	pano_0000_000351	52.3510468066549	4.94444897029152	39.7901777513325	1.80992191911112	0.289538329002206	137.534699551849
1142601330.26853	pano_0000_000352	52.3510810574283	4.94439711277457	39.7964352136478	1.68499686524295	0.637594513349274	137.333469260056
1142601331.52852	pano_0000_000353	52.3511152974344	4.94434493521366	39.8172536930069	1.21742053645169	0.372199098645712	136.635138022827
1142601332.91852	pano_0000_000354	52.3511425005887	4.9442832745919	39.8585338005796	0.0411527898974197	0.351047403367338	115.50632948334
1142601334.22849	pano_0000_000355	52.3511425563645	4.94420950235682	39.8730590492487	-0.486432579148503	0.434728001851005	79.4409738325405
1142601335.37352	pano_0000_000356	52.3511221037242	4.94414544797111	39.8877232670784	-0.298914398080751	0.777219932625769	57.0317024795043
1142601336.42847	pano_0000_000357	52.35109381778	4.94409045296704	39.9588521234691	-0.0234795752153757	0.26279562653351	47.5035033225431
1142601337.42844	pano_0000_000358	52.3510622528373	4.94403999457486	39.9869673969224	1.74537523865185	0.236548313153324	44.7186557116486
1142601338.38348	pano_0000_000359	52.3510315451447	4.94398815228583	40.0020832773298	1.2197991071196	0.166069240073304	46.3251100789952
1142601339.31844	pano_0000_000360	52.3510011249354	4.94393586704237	40.0086566442624	1.34468789591679	0.646933627266631	46.3001393850244
1142601340.28845	pano_0000_000361	52.3509706235454	4.94388434143841	39.9808425214142	1.19504315532025	0.966839478152679	45.8219834716683
1142601341.29351	pano_0000_000362	52.3509402203873	4.94383332898683	39.9711495013908	1.62207331505605	0.511292994104008	46.0524311232395
1142601342.3384	pano_0000_000363	52.3509103924445	4.94378185866677	39.9757294086739	1.30859767260434	0.452804138266455	46.5297377688763
1142601343.4284	pano_0000_000364	52.3508809968583	4.94373069784215	39.9854424940422	1.39112356245519	1.26447484363252	46.7606926097739
1142601344.63838	pano_0000_000365	52.3508524302011	4.94367951430743	39.9576874328777	0.337029361403621	0.947284256973529	47.0928119567997
1142601346.13836	pano_0000_000366	52.3508262855082	4.94362722013035	39.9529224364087	-1.80253142417112	0.790422255998884	51.8007804103637
1142601347.90331	pano_0000_000367	52.350810367282	4.94356695499421	39.9651053603739	-0.321938575282994	-0.241814868475515	74.6645805585842
1142601349.16835	pano_0000_000368	52.3508162435876	4.9434979525139	39.9316272716969	-2.12691111718188	0.189368364262341	104.590344734349
1142601350.2234	pano_0000_000369	52.3508387664625	4.94343432217998	39.9298477545381	-2.74022994169481	0.730622823738671	124.273812693299
1142601351.1783	pano_0000_000370	52.3508685843152	4.943376811271	39.9624835560098	-2.03936790859787	0.625653340707242	132.644809566945
1142601352.13831	pano_0000_000371	52.3509010866845	4.94332248533839	39.96750509087	-1.30212958745216	1.1516969836843	135.218699640993
1142601353.18326	pano_0000_000372	52.3509351622401	4.94326955272208	39.9820394134149	-1.54978996013843	0.328671933015187	136.92062067506
1142601354.35831	pano_0000_000373	52.3509739535045	4.94322425226585	40.0025592902675	-2.03148392529432	0.421611187668551	150.073780168508
1142601355.65825	pano_0000_000374	52.3510201656463	4.94320846763513	39.9629339808598	-1.52235929898703	-0.55685168827146	179.55456798721
1142601356.92821	pano_0000_000375	52.3510641220596	4.94323239449748	39.9861309370026	2.09555454626258	0.942963478212387	208.510606084002
1142601358.01338	pano_0000_000376	52.3510981744193	4.9432807157601	39.9985449621454	0.504674619436186	0.999316049985924	224.465998376501
1142601358.97823	pano_0000_000377	52.3511289441007	4.94333329347891	39.9834697348997	-0.455442969300353	0.00764954347501573	226.475004775782
1142601359.89817	pano_0000_000378	52.3511595086759	4.94338578607654	39.9832677925006	-0.501358114010332	-0.202832784834159	227.115982954744
1142601360.8132	pano_0000_000379	52.3511900247155	4.94343891659162	40.0024068327621	-0.480783244802866	0.504654114682098	227.017276696461
1142601361.75314	pano_0000_000380	52.3512212324459	4.94349066221181	39.9837414994836	-0.0139997187303229	0.67127976162256	225.786407281664
1142601362.71812	pano_0000_000381	52.3512519238255	4.9435419382458	39.9653231119737	-0.443430359462466	0.826029996268787	226.148293093116
1142601363.70815	pano_0000_000382	52.3512805404928	4.9435952407425	39.9532222757116	-0.482357958344882	0.45704353734252	230.986970956691
1142601364.7231	pano_0000_000383	52.3513062431026	4.9436520841075	39.9269521189854	-0.371422966465812	0.854568077123963	234.734922393072
1142601365.81312	pano_0000_000384	52.3513316470442	4.94370862486398	39.8777591902763	-0.975737351250075	1.03929913396306	232.626151608122
1142601367.03326	pano_0000_000385	52.351359582715	4.94376025900841	39.8740414408967	-0.825736398249635	0.102987288792804	226.368753223554
1142601368.49306	pano_0000_000386	52.3513941348161	4.94379782628163	39.8457702491432	-1.04433076651656	-0.514504326448365	207.076767769475
1142601369.91812	pano_0000_000387	52.3514349619033	4.94379827642481	39.8318763896823	0.727856551673891	0.388033282433726	170.513054462989
1142601371.22804	pano_0000_000388	52.3514729946328	4.9437645083985	39.8214640282094	2.07097049911256	-0.226431029955851	147.539442852895
1142601372.56811	pano_0000_000389	52.3515081989698	4.94371827896765	39.9086049664766	1.22843579826488	1.73100918526424	141.133447078741
1142601373.783	pano_0000_000390	52.3515432350097	4.94366954849497	39.8355248617008	1.06916074588608	0.524745882335062	140.044391716548
1142601374.98803	pano_0000_000391	52.3515781467491	4.94361918866238	39.818714113906	0.97936420206861	0.809375470615162	138.990091463914
1142601376.32296	pano_0000_000392	52.3516125341211	4.94356686229409	39.8100608959794	0.0938058804724802	0.222408055437519	135.483445261414
1142601377.73294	pano_0000_000393	52.3516334690108	4.94349986660563	39.8201930401847	-1.23071294408488	-0.428490917257988	105.630527811576
1142601379.01811	pano_0000_000394	52.3516261594897	4.94342722378076	39.7826828677207	0.833551649870006	0.650028907601858	74.209931588658
1142601380.17293	pano_0000_000395	52.35160506589	4.94336366160008	39.81408794038	1.2698330598264	-0.0409530260674488	58.8880310277842
1142601381.25309	pano_0000_000396	52.3515774289748	4.94330822281355	39.8254251005128	1.63230786350394	0.168491874724293	49.6190916563648
1142601382.27794	pano_0000_000397	52.3515477688658	4.94325628719512	39.806845234707	2.01768142997872	-0.207663705877467	47.5510454222473
1142601383.25813	pano_0000_000398	52.3515174777556	4.94320574026805	39.793932964094	2.90237576628087	0.492434991235559	46.434774200233
1142601384.24794	pano_0000_000399	52.3514876761012	4.94315511925078	39.7411448340863	2.95581028960617	0.753615349133979	47.1896991254096
1142601385.25797	pano_0000_000400	52.3514589135539	4.94310418570513	39.7183077363297	1.58859147373015	0.586913388576829	47.4199196761483
1142601386.30287	pano_0000_000401	52.3514299290676	4.94305480183764	39.6906558098271	1.35270562750185	0.648446646155379	46.6526176681816
1142601387.39786	pano_0000_000402	52.3514012305579	4.94300606031492	39.6254415949807	1.19442298033434	0.607989106211469	46.7846592825738
1142601388.53286	pano_0000_000403	52.3513728680502	4.94295777653319	39.5993557181209	1.37790922813766	0.539468381812578	46.937872590716
1142601389.78282	pano_0000_000404	52.3513456276813	4.94291017116316	39.5683486359194	0.558866058866946	1.18830041374235	47.1044869817053
1142601391.33279	pano_0000_000405	52.3513198155772	4.94286399898968	39.5206254115328	-0.784341567900514	-0.618310807361424	47.8315244230819
1142601393.62782	pano_0000_000406	52.3512951425161	4.94281901374383	39.5667418399826	-0.889669852117105	-0.902363092802719	48.8576794226119
1142601395.09277	pano_0000_000407	52.3512671333037	4.94276889078006	39.5810555294156	-0.0185160499032717	-0.512147658327694	48.1013320430521
1142601396.23779	pano_0000_000408	52.3512372615993	4.94271832839123	39.5812524249777	-0.147860703378632	0.54664389889779	46.0807855068267
1142601397.31275	pano_0000_000409	52.3512070132931	4.94266801057022	39.5120645286515	-0.464432038782976	0.596811409734848	46.366287401187
1142601398.36773	pano_0000_000410	52.3511771747028	4.94261681715364	39.3582261865959	-1.18088118355849	4.42516018723356	46.7929033657838
1142601399.45279	pano_0000_000411	52.3511466886302	4.94256582952722	39.3076364751905	-0.541998103452077	0.221285757187703	46.6149779666199
1142601400.5128	pano_0000_000412	52.3511163130127	4.94251451959036	39.3320815563202	-1.15797512457255	0.386829554019793	46.1933638183837
1142601401.58771	pano_0000_000413	52.3510853159554	4.94246377212684	39.3345711212605	-0.667712368968058	0.299978707580964	45.8495205127568
1142601402.65766	pano_0000_000414	52.3510540329844	4.94241276646996	39.3212166456506	-0.531170128873964	0.517803746181839	45.5603974306955
1142601403.70779	pano_0000_000415	52.3510222079894	4.94236190570748	39.2853937195614	-0.143782852815127	0.51348802069929	45.1470846801721
1142601404.76279	pano_0000_000416	52.3509904567761	4.94231079035212	39.2744940696284	-0.184013399143501	0.259676639461187	45.5148248202951
1142601405.85266	pano_0000_000417	52.3509591040892	4.9422584770826	39.2749116597697	-0.299534161020659	0.833927277659187	46.743035108951
1142601407.04762	pano_0000_000418	52.350928286244	4.94220496895316	39.2628757031634	-0.422072829182026	0.357591464186692	47.8970514773904
1142601408.3326	pano_0000_000419	52.3508976151708	4.94215096382803	39.2702251849696	-0.184448076056869	-0.309252859700791	48.2121004018973
1142601409.75261	pano_0000_000420	52.3508662632268	4.94209779452812	39.2866727747023	-0.706264429212508	-0.00287289485288805	45.7187520002865
1142601411.46756	pano_0000_000421	52.350827932697	4.94205726475835	39.3430485036224	0.520095907655565	-0.492367320362088	26.842658667718
1142601412.89255	pano_0000_000422	52.3507830182211	4.94204958740532	39.3589072255418	0.222427885512586	0.460424372351433	356.835053050922
1142601414.13756	pano_0000_000423	52.3507418932145	4.94207946324024	39.359860252589	1.57380034985901	-0.349450127302949	329.549568289902
1142601415.28254	pano_0000_000424	52.3507046652772	4.94212401891921	39.3681344427168	1.70964906560521	-0.0283890904046343	323.307185971221
1142601416.46751	pano_0000_000425	52.3506684031834	4.94217284071529	39.3786591859534	1.90776234032302	0.412943648389997	319.718166781111
1142601417.82252	pano_0000_000426	52.3506332137298	4.9422256068646	39.3801976349205	1.53623408134585	-0.0767809534000753	316.857869368014
1142601419.24749	pano_0000_000427	52.3505984894765	4.94227991384421	39.4347786484286	1.35891404533294	0.484070108285828	316.447558263301
1142601420.40746	pano_0000_000428	52.3505642990336	4.94233358540449	39.4357039164752	0.812304613603076	0.336258890084637	316.274507425911
1142601421.43744	pano_0000_000429	52.3505306286855	4.94238795579929	39.4420754350722	0.61575892032844	0.751554452355472	315.292214096383
1142601422.38745	pano_0000_000430	52.3504976996116	4.94244265755472	39.433478939347	1.3026196574424	0.569832139050319	315.104847329601
1142601423.29247	pano_0000_000431	52.3504645775727	4.94249696505013	39.4510643193498	1.56768099569322	0.311992580528584	315.706192659376
1142601424.15741	pano_0000_000432	52.3504311393678	4.94255020106184	39.4625100446865	1.24951562856162	0.302924857955162	316.304160872556
