gps_seconds[s]	panorama_file_name	latitude[deg]	longitude[deg]	altitude_ellipsoidal[m]	roll[deg]	pitch[deg]	heading[deg]
1142841002.86157	pano_0000_000000	52.3668688704792	4.91225265953536	45.0735182929784	-1.96925126622774	0.53594420204905	210.888021614679
1142841003.86158	pano_0000_000001	52.3669281219994	4.91230914861788	45.0959373582155	-2.05404083902374	0.432958000041403	209.92709751786
1142841004.8616	pano_0000_000002	52.3669867154748	4.91236314279345	45.151793227531	-1.8653557225146	0.484653790154057	209.676041782066
1142841005.8616	pano_0000_000003	52.3670421569654	4.9124146651144	45.1834464203566	-1.93195448038848	0.754900425796416	209.829991993342
1142841006.86162	pano_0000_000004	52.3670938789001	4.91246273225673	45.2127487137914	-2.00692354979471	0.378266793304297	209.761382679
1142841007.86162	pano_0000_000005	52.367142468907	4.91250767265681	45.3556643212214	-2.06330631873229	0.826862255477352	209.592170091435
1142841008.86164	pano_0000_000006	52.3671904382453	4.91255138611556	45.3732059150934	-1.49292237730227	0.959445116661499	209.424471238381
1142841009.86164	pano_0000_000007	52.367244136516	4.9126010403261	45.3536045448855	-1.40330476980103	0.0602443607540953	209.886983516801
1142841010.86165	pano_0000_000008	52.367304104158	4.91265724512142	45.4129979768768	-1.66053343259153	-0.00392220293834333	210.150023535825
1142841011.86166	pano_0000_000009	52.367368066277	4.91271765875282	45.4568655630574	-1.86375571868481	0.660207313487034	210.284453703392
1142841012.86167	pano_0000_000010	52.367432368193	4.91277845153849	45.4964147703722	-1.97924574366025	0.281988671509847	210.237048710578
1142841013.86168	pano_0000_000011	52.3674975380508	4.91283991369817	45.5449078390375	-2.17389475762483	0.406786667466068	209.999515681149
1142841014.86169	pano_0000_000012	52.3675628676136	4.91290059210831	45.5948498621583	-1.99233062463694	0.384567514694083	209.998788313823
1142841015.86169	pano_0000_000013	52.3676251249945	4.91295911092448	45.6574067547917	-1.69359717303837	0.739661383788581	210.321290869082
1142841016.8617	pano_0000_000014	52.3676831185963	4.91301453809976	45.6813226174563	-2.07195938821485	0.690678995658994	210.552897041049
1142841017.86171	pano_0000_000015	52.367736651399	4.91306498790377	45.7499440982938	-1.84771942581294	0.281074450729098	210.214311292576
1142841018.86172	pano_0000_000016	52.3677821822758	4.91310830397788	45.9041074207053	-1.99501013576813	-2.73238295432162	210.70985544298
1142841019.86172	pano_0000_000017	52.3678245013483	4.91314935873278	45.9334743693471	-1.99354931072157	-0.202751175643474	211.214112475986
1142841020.86178	pano_0000_000018	52.3678682908045	4.91319284553976	46.019923706539	-1.97250194048488	0.3748057734054	211.705190297917
1142841021.86178	pano_0000_000019	52.3679108997901	4.91323409994961	46.1087154690176	-1.79551114045229	0.0412185508602448	209.487084377226
1142841022.86188	pano_0000_000020	52.367952852047	4.91325985237274	46.2335945917293	-2.13745702619526	-0.83930882730096	194.942920028973
1142841023.86193	pano_0000_000021	52.3679950056941	4.9132583292433	46.3945653503761	-0.849881699327849	-0.637684064237351	173.090312174257
1142841024.86194	pano_0000_000022	52.3680254880339	4.91324040548077	46.5096091683954	0.643401050752929	0.468703665925358	157.946568652627
1142841025.86195	pano_0000_000023	52.3680276723034	4.91323806745663	46.566764687188	0.503968282457936	-0.185128220670903	156.39689948232
1142841026.86196	pano_0000_000024	52.3680265568992	4.91323868988019	46.6228109560907	0.50185167283752	-0.184045585682432	156.849993435972
1142841027.86196	pano_0000_000025	52.3680257270617	4.91323910242115	46.677846653387	0.448415909748899	-0.50205286113007	157.072363156757
1142841028.86197	pano_0000_000026	52.3680336195455	4.91323133739479	46.75372048188	0.367334044210209	-0.47460190877953	152.364921452447
1142841029.86193	pano_0000_000027	52.3680484259922	4.91321413684693	46.8324646307155	-0.0486153911477635	-0.119360996241586	145.464351593859
1142841030.86189	pano_0000_000028	52.3680622761243	4.91319439493906	46.9427416278049	0.367815745236233	-3.00123608643457	140.283157924154
1142841031.8618	pano_0000_000029	52.3680801295802	4.91316307204226	47.0348131507635	-0.498557086978409	3.39630573051704	132.316912609121
1142841032.86181	pano_0000_000030	52.3680997871233	4.91311649069489	47.0294910669327	-0.832260368831257	-0.229501918984378	123.717838050407
1142841033.86181	pano_0000_000031	52.3681214366973	4.91305320319085	47.0818093484268	-0.40472859132904	0.854383711865825	119.668959660429
1142841034.86182	pano_0000_000032	52.3681438856512	4.91298666431585	47.1078182766214	0.397821423261041	0.409835037456338	119.745583443851
1142841035.86182	pano_0000_000033	52.3681675537923	4.91291786471417	47.1631170334294	0.538200971834108	0.441542494423769	120.070342671365
1142841036.86182	pano_0000_000034	52.3681921926339	4.91284675162214	47.20678465534	0.521273381601518	0.469990589199384	119.827473833637
1142841037.86183	pano_0000_000035	52.3682173393904	4.91277320083118	47.2585239345208	0.411865058469907	0.424498218592181	119.583663945857
1142841038.86182	pano_0000_000036	52.3682428339203	4.91269909053729	47.3077620258555	0.118455747729859	0.582132478488907	119.650863127302
1142841039.86183	pano_0000_000037	52.3682679687146	4.91262542453745	47.3593988316134	0.357227613452227	0.466073382210722	119.467879710805
1142841040.86183	pano_0000_000038	52.3682930126489	4.91255151378356	47.4076470686123	0.384436482825072	0.417006322380806	119.067416803399
1142841041.86183	pano_0000_000039	52.3683179014079	4.91247722998394	47.4590956382453	0.462887792849847	0.49903422995383	118.98862256993
1142841042.86183	pano_0000_000040	52.3683432700728	4.91240163084346	47.5151806827635	0.725283948976214	0.343336346633312	119.3942203923
1142841043.86184	pano_0000_000041	52.36836994718	4.91232513476684	47.5727300662547	0.468301415378661	0.355707311026011	120.055323535597
1142841044.86184	pano_0000_000042	52.368397490252	4.91224771930026	47.6347249448299	0.327447895864586	0.436793995176476	120.615673279277
1142841045.86185	pano_0000_000043	52.3684256200984	4.91217031403588	47.692628595978	0.206292489789285	0.638850044060956	121.118787831147
1142841046.86185	pano_0000_000044	52.3684537449702	4.91209278988945	47.7535519711673	0.223964422769471	0.403997644617556	120.823876966745
1142841047.86186	pano_0000_000045	52.3684821706786	4.9120133949135	47.8058550395072	-0.0694275789618388	0.432701903130803	120.38588642073
1142841048.86186	pano_0000_000046	52.3685107113972	4.91193171900386	47.8432793635875	0.202372583376218	0.555210980308719	119.961801747496
1142841049.86186	pano_0000_000047	52.36853942935	4.9118481148974	47.8922188077122	0.385384888095927	0.470565263817018	119.533184861628
1142841050.86187	pano_0000_000048	52.3685683426481	4.91176309174919	47.9366990830749	0.442733594607441	0.563186196588451	119.559697018024
1142841051.86187	pano_0000_000049	52.3685977471365	4.9116782401401	47.9845032598823	0.661189887478937	0.490794857225272	120.174154535679
1142841052.86188	pano_0000_000050	52.3686276128854	4.91159516964175	48.0397855537012	0.230878505193907	0.418339068907296	120.940390780528
1142841053.86188	pano_0000_000051	52.3686584009239	4.91151075561755	48.0912227444351	0.265594259902012	0.679164392915775	121.261073674117
1142841054.86189	pano_0000_000052	52.3686897685911	4.9114241275023	48.1306170299649	0.619544631643529	0.535855650808761	121.073609721145
1142841055.86189	pano_0000_000053	52.3687214241492	4.91133671082351	48.1913508940488	-0.136340286852756	0.572968616114212	120.873102216667
1142841056.8619	pano_0000_000054	52.3687528782249	4.91125353324942	48.2550873486325	-0.899543459754952	0.464290212446632	122.733889393715
1142841057.8619	pano_0000_000055	52.36878273632	4.91117448156855	48.3340505305678	-0.544445337727768	0.168079699611273	120.538151147937
1142841058.86191	pano_0000_000056	52.3688041640665	4.91108949332055	48.4030924318358	-0.459295725211871	0.601656600544641	108.617754302999
1142841059.86191	pano_0000_000057	52.3688135848777	4.91099895970579	48.4519816404209	-1.00118283477503	0.624799921425358	95.0434323136065
1142841060.86192	pano_0000_000058	52.3688099227613	4.91090804195784	48.4982053833082	-0.259049864779316	0.47069233270097	82.6251423297129
1142841061.86192	pano_0000_000059	52.3687989132512	4.91082480596359	48.5800383128226	0.135203472115748	0.164375027022671	76.6360465041376
1142841062.86193	pano_0000_000060	52.3687895592674	4.91075797999428	48.7054041102529	0.409880453237461	-0.176514411871381	77.7833900879935
1142841063.86194	pano_0000_000061	52.3687857356856	4.91072222846261	48.8085886295885	0.303503699536157	-0.00567016164416084	80.0201747173528
1142841064.86194	pano_0000_000062	52.3687846798078	4.91070651459025	48.888291769661	0.325746569165112	-0.252358707695868	81.6856167742136
1142841065.86195	pano_0000_000063	52.3687841340253	4.91069503177608	48.9662634739652	0.343182732330877	-0.252853675695882	82.8811394979847
1142841066.86195	pano_0000_000064	52.368783742765	4.91068416218684	49.0421745013446	0.487653673154851	-0.550902533604417	84.2870921818677
1142841067.86196	pano_0000_000065	52.3687845665492	4.91065475434823	49.1280188700184	0.672299589193014	-0.459515958378405	92.9853968003694
1142841068.86196	pano_0000_000066	52.3687924451367	4.91060396928865	49.2110992213711	1.17912469157758	-0.0933897853748232	108.038918567743
1142841069.86197	pano_0000_000067	52.3688118871357	4.91053899082348	49.3008663840592	1.82450634016438	-0.505140005108989	120.63292433401
1142841070.86197	pano_0000_000068	52.3688405894545	4.91047478166511	49.466046336107	0.876654778856899	-1.26223298158146	129.039517327253
1142841071.86198	pano_0000_000069	52.3688753305872	4.9104067360875	49.6795577909797	0.545739681482342	-1.11799594200825	130.712938655467
1142841072.86198	pano_0000_000070	52.3689147900518	4.91033028175066	49.9260164815933	0.256430323748554	-1.25783321208648	131.212509768332
1142841073.86199	pano_0000_000071	52.3689586837886	4.91024854890354	50.2080136165023	0.0905047130821129	-1.58339869383404	132.742463266886
1142841074.862	pano_0000_000072	52.3690063091866	4.91016364840444	50.5261160572991	-0.0567718159737836	-1.3717013269384	133.511992420899
1142841075.862	pano_0000_000073	52.3690528746959	4.91008067820141	50.8249211264774	-0.253125071283434	-1.33640211855961	133.20604221337
1142841076.86201	pano_0000_000074	52.3690978282445	4.90999969462901	51.1404981715605	-0.192643858463267	-1.31055120626146	133.005013601194
1142841077.86202	pano_0000_000075	52.3691395186274	4.90992398966392	51.4100782936439	0.0796820682521889	-1.1841560883868	133.052103196438
1142841078.86211	pano_0000_000076	52.3691772418921	4.90985647264352	51.6262663891539	0.322666315348467	-0.00686666230546756	133.744378576181
1142841079.86216	pano_0000_000077	52.369209746063	4.90979945099503	51.6867223242298	0.165454968168339	1.65761014705871	134.013793772413
1142841080.86211	pano_0000_000078	52.3692334552742	4.90975233788757	51.6633662972599	-0.893822574136878	1.78618897816374	127.357608004077
1142841081.86206	pano_0000_000079	52.3692476186243	4.90969939154918	51.5806721132249	-1.53090811279143	3.78246255495759	110.028316057214
1142841082.86202	pano_0000_000080	52.3692525176128	4.90964189392296	51.4721205197275	-0.576056437167202	3.37107102433829	97.5785724286567
1142841083.86202	pano_0000_000081	52.3692511207113	4.90959317637416	51.3767622308806	-1.05712792215393	3.59384309000304	86.5674367260216
1142841084.86203	pano_0000_000082	52.3692461387242	4.90955606440495	51.3345630709082	-4.6163827474697	2.5536763000113	77.0290651851635
1142841085.86203	pano_0000_000083	52.369236727265	4.90952227951915	51.360160227865	-2.83444411930479	1.75529636381006	68.5049953434619
1142841086.86204	pano_0000_000084	52.3692201554476	4.90948328677859	51.2319710683078	-1.79665490942877	6.28980174033508	56.095661770662
1142841087.862	pano_0000_000085	52.3691939188105	4.90943987703014	51.0741315893829	-2.59408669942261	3.17215977427278	44.6756009668569
1142841088.86198	pano_0000_000086	52.3691581191119	4.90938906645628	50.8721974529326	-2.96290355838886	2.68767443681675	42.101334422402
1142841089.86196	pano_0000_000087	52.3691168696638	4.9093300648437	50.6775823319331	-2.60188929706131	2.88861330790269	42.9271815843081
1142841090.86193	pano_0000_000088	52.3690753910247	4.90926870455887	50.5174573771656	-2.38991201467039	2.1267685644623	43.5471965994768
1142841091.86194	pano_0000_000089	52.3690352544889	4.90921055173642	50.491487509571	-0.525333544066824	1.17154267666197	43.6420918327766
1142841092.86196	pano_0000_000090	52.3689958038963	4.90915382186142	50.4546559015289	2.33396915994773	1.30541505196376	43.8861088727191
1142841093.86197	pano_0000_000091	52.3689575073067	4.90909709571852	50.4494119426236	2.97021808109546	0.622290970983242	44.1505514233187
1142841094.86199	pano_0000_000092	52.368919642856	4.90904046876625	50.504246538505	2.72457932200812	0.262632050121478	43.9599529489852
1142841095.86199	pano_0000_000093	52.3688808381029	4.90898349917689	50.5454125460237	3.14355769512131	0.594120203786929	43.6272762077448
1142841096.86201	pano_0000_000094	52.3688426620194	4.90892664484737	50.5882093887776	3.31563494075709	0.729817131034402	44.1349905189043
1142841097.86202	pano_0000_000095	52.3688059266664	4.90887184411372	50.6139073036611	2.44642971498449	1.0008157905119	43.5862747959456
1142841098.86203	pano_0000_000096	52.3687692894201	4.90881790738106	50.6706888768822	1.22075820563711	4.4213033058971	43.0771452723615
1142841099.86204	pano_0000_000097	52.368732552338	4.90876504425762	50.6384283211082	1.77058312395594	-0.285430147162002	43.3536806616283
1142841100.86205	pano_0000_000098	52.3686918945399	4.90870477001865	50.6461607161909	1.32983794483639	0.147726175040695	43.4786807983295
1142841101.86206	pano_0000_000099	52.3686481351421	4.90863995328185	50.6759706744924	1.22860775767872	0.309839049527893	43.2954109383473
1142841102.86207	pano_0000_000100	52.3686025424964	4.90857284920306	50.6978879161179	2.04746652777545	0.204549138497606	43.4944463484146
1142841103.86208	pano_0000_000101	52.3685560906347	4.90850267227945	50.7110421452671	1.64453171577902	0.435542100079096	43.735139350367
1142841104.86209	pano_0000_000102	52.3685078090751	4.90843070220949	50.7150320634246	2.22694654328942	1.08511105666941	43.3850059476425
1142841105.86209	pano_0000_000103	52.3684602278325	4.90835998150114	50.7315530944616	1.77267352980953	0.657217325948451	43.0854720096807
1142841106.8621	pano_0000_000104	52.3684139232442	4.90829136646223	50.7471554977819	2.20342043116697	0.257503519345521	43.4525120494575
1142841107.86211	pano_0000_000105	52.3683706731464	4.90822495533525	50.7571766953915	2.48954754903726	0.171525992847746	44.5470219441235
1142841108.86212	pano_0000_000106	52.3683305226475	4.90816079405713	50.754798758775	0.966115576696803	0.439256742543798	44.822179780222
1142841109.86212	pano_0000_000107	52.3682918357998	4.90810145283905	50.7699827244505	1.69126220621194	0.7449994855888	44.1068232390204
1142841110.86213	pano_0000_000108	52.3682545413708	4.90804495102207	50.8211640492082	1.45581559305414	2.80208125557879	43.4049159077939
1142841111.86214	pano_0000_000109	52.3682177400757	4.90799120442272	50.7912347987294	1.69022027278731	0.469201657299392	42.5946524617401
1142841112.86215	pano_0000_000110	52.3681797460855	4.90793608600644	50.8123763231561	1.756492604966	-0.124108240197808	42.3541058653387
1142841113.86215	pano_0000_000111	52.3681401176796	4.90787830412923	50.8212871700525	1.42316668063088	0.445841339379991	42.6309066024596
1142841114.86216	pano_0000_000112	52.3681004830087	4.90781938047063	50.8227368481457	1.67554181195593	0.796800161439187	43.186742703004
1142841115.86217	pano_0000_000113	52.3680628872859	4.90776442562322	50.8293684860691	1.49101521198033	0.551876865324928	42.0112301312856
1142841116.86217	pano_0000_000114	52.3680270810721	4.90771029139739	50.82998919487	2.0683925967117	0.29272966590048	45.7829294250086
1142841117.86218	pano_0000_000115	52.3679932820197	4.90765036049982	50.8501278515905	1.68935715895647	0.47707149515215	47.3636795219408
1142841118.86219	pano_0000_000116	52.3679565746641	4.90759022258935	50.8555528689176	1.65209829014459	0.216018401725163	44.5454940509483
1142841119.86219	pano_0000_000117	52.3679191103148	4.90753266239529	50.8474576510489	2.26837182050854	0.490348707790897	43.8535152288944
1142841120.86219	pano_0000_000118	52.3678839941187	4.90747835076647	50.8552288804203	1.91236566757217	0.422094044554837	43.8005956373687
1142841121.86219	pano_0000_000119	52.3678504673122	4.90742605670947	50.8487458238378	1.42337076388539	0.717629658635206	43.980429920142
1142841122.86219	pano_0000_000120	52.3678170299622	4.90737517332882	50.8489738032222	2.19057341806759	3.62247436521105	43.566919259085
1142841123.8622	pano_0000_000121	52.367782246049	4.90732351402582	50.7884519807994	3.19029594136509	0.53529313418298	42.9192753562956
1142841124.8622	pano_0000_000122	52.367744823367	4.90726623295961	50.7878027027473	2.69286552067135	-0.0683714025057103	43.5795054130669
1142841125.8622	pano_0000_000123	52.3677057282218	4.90720550335428	50.8264493672177	2.04005259635286	-0.534125527484385	43.6202818215536
1142841126.8622	pano_0000_000124	52.3676677329514	4.90714821505435	50.9471042715013	1.56389870738978	-0.616746931217524	42.2194935936249
1142841127.86221	pano_0000_000125	52.3676338320199	4.90709849646953	51.1821586387232	-0.329051717047872	-3.23565857120751	40.9412273426225
1142841128.86221	pano_0000_000126	52.3676042735199	4.90705798241034	51.5103818047792	0.522169233608425	-4.87582934171106	40.333053036895
1142841129.86222	pano_0000_000127	52.3675803132697	4.90702388856639	51.7762092621997	-0.25541872398656	-3.70338480115516	40.5800007643527
1142841130.86222	pano_0000_000128	52.3675586644206	4.9069900183825	51.9684397885576	0.656491431911156	-2.33725042761051	46.3752822596351
1142841131.86222	pano_0000_000129	52.3675435754654	4.90694585025078	52.0575837064534	-1.03362955640514	-1.25232205680616	65.36171988008
1142841132.86223	pano_0000_000130	52.3675415820333	4.90688716442727	51.9927152460441	-2.34367485040794	1.3726737618043	93.426925960952
1142841133.86223	pano_0000_000131	52.3675560959065	4.90682448898757	51.898069659248	-2.6133012311911	-0.613010388870351	116.366994768551
1142841134.86224	pano_0000_000132	52.3675802349405	4.90675918573414	51.8546341443434	-2.99120629165205	0.289166695897331	121.801398995648
1142841135.86224	pano_0000_000133	52.3676061426198	4.90668713921345	51.8205127203837	-3.24325847685828	0.435160075381896	120.803223155197
1142841136.86224	pano_0000_000134	52.3676330106033	4.90661079539843	51.7865772275254	-3.09632861318849	0.121575922510344	120.544465367647
1142841137.86225	pano_0000_000135	52.3676616042062	4.90652856403226	51.7448901459575	-3.69694838993628	0.575851412832706	120.063559558757
1142841138.86226	pano_0000_000136	52.3676905262494	4.90644297685537	51.7236775616184	-3.03354058757247	0.200325760431287	119.568390065962
1142841139.86226	pano_0000_000137	52.3677181137128	4.90635958420298	51.685324402526	-2.77990845305217	0.155866462667033	119.216690404671
1142841140.86227	pano_0000_000138	52.367745157466	4.90627894257316	51.6294938530773	-3.44735108792512	0.771511040190761	119.400537825971
1142841141.86227	pano_0000_000139	52.3677699776196	4.90620449865045	51.6071285679936	-2.84697268019698	0.457480209874727	119.783924953177
1142841142.86227	pano_0000_000140	52.3677934235796	4.90613544326557	51.6226262524724	-2.7801372986058	-2.19161728529777	119.896317097047
1142841143.86228	pano_0000_000141	52.3678164274247	4.90606791118753	51.506386349909	-3.32018844109323	0.305980403686792	119.869367654774
1142841144.86229	pano_0000_000142	52.3678383128388	4.90600433438784	51.4807786112651	-2.9025477571582	0.668059445426828	120.348475757441
1142841145.86229	pano_0000_000143	52.3678593713874	4.90594199333415	51.4394790483639	-2.20389393556145	0.414008087919756	119.846444422184
1142841146.8623	pano_0000_000144	52.3678801796506	4.90588170417715	51.3845761362463	-3.23474985765571	0.7755131092583	119.738068276203
1142841147.8623	pano_0000_000145	52.3678998646948	4.90582315464152	51.3258503610268	-2.99832803485061	0.360437986577541	119.43968374642
1142841148.86231	pano_0000_000146	52.3679187429495	4.9057665848597	51.2931224396452	-2.65818865871992	0.437836774511758	119.298218991343
1142841149.86232	pano_0000_000147	52.3679367639627	4.90571235485107	51.2655997741967	-2.17606499440821	0.520641631264402	119.232621722481
1142841150.86232	pano_0000_000148	52.3679545735723	4.90566053597747	51.2260709488764	-2.63797715806777	0.579258617817512	119.542230379963
1142841151.86233	pano_0000_000149	52.3679719094039	4.90561054744404	51.1770002106205	-2.83033491943807	0.834943299263713	119.856510336206
1142841152.86233	pano_0000_000150	52.3679885785382	4.90556299824182	51.1571049001068	-2.41246922406982	-0.0633412078185681	120.282307581875
1142841153.86234	pano_0000_000151	52.368004854995	4.90551746068013	51.1193692246452	-2.63313857746763	0.684234999514074	120.441476750683
1142841154.86234	pano_0000_000152	52.3680206668866	4.90547475811272	51.0839767856523	-3.09554348355439	0.304732768850118	121.24660746432
1142841155.86235	pano_0000_000153	52.3680352349797	4.90543779582938	51.0742569854483	-1.94071441495297	-0.472904561886377	124.187312901276
1142841156.86235	pano_0000_000154	52.3680505937458	4.90540954758473	51.0728872232139	-2.09224271712876	-0.3223543388451	132.809468670048
1142841157.86236	pano_0000_000155	52.3680605192714	4.90539418292403	51.0623583355919	-2.26428516340456	-0.0195425121744945	135.320699568576
1142841158.86237	pano_0000_000156	52.3680628305307	4.90539041897712	51.0330987675115	-2.02733964950168	-0.188637447515053	135.060770289844
1142841159.86237	pano_0000_000157	52.3680634791727	4.90538961883681	50.9987372765318	-2.0158928189865	-0.235546093268307	134.998302559782
1142841160.86238	pano_0000_000158	52.3680635280544	4.90538989686193	50.9617355028167	-2.0465773387345	-0.354283811814324	135.043095381662
1142841161.86239	pano_0000_000159	52.3680659241972	4.90538606607183	50.9296836145222	-1.98708528348429	-0.493868139931105	134.596986152191
1142841162.86239	pano_0000_000160	52.3680704896514	4.9053780391533	50.9070761473849	-2.18318132422249	-0.373354979074142	132.741677993163
1142841163.86239	pano_0000_000161	52.3680723119645	4.90537447757193	50.8780377246439	-2.03276319241786	-0.356533359015102	131.154947770921
1142841164.86239	pano_0000_000162	52.368072753964	4.90537418648201	50.843015906401	-2.06086063561439	-0.424897421345867	131.095658249331
1142841165.86239	pano_0000_000163	52.3680731329902	4.90537400972683	50.8094300478697	-2.06167345056449	-0.431657155228739	131.09315457197
1142841166.86239	pano_0000_000164	52.3680735105134	4.90537383020703	50.7774506779388	-2.06002937115231	-0.435136743483444	131.101295987143
1142841167.86239	pano_0000_000165	52.3680738745504	4.90537366309042	50.7459749029949	-2.05263098472379	-0.433726415766923	131.105631555724
1142841168.8624	pano_0000_000166	52.3680740348532	4.90537395488674	50.716170091182	-2.07215513896538	-0.448441729135456	131.317037704529
1142841169.8624	pano_0000_000167	52.368074329027	4.90537388350456	50.6860688235611	-2.07592673617073	-0.468480591717691	131.354714409738
1142841170.8624	pano_0000_000168	52.3680753997865	4.9053719561889	50.6569211930037	-2.0350959150707	-0.464157585175858	130.546908208358
1142841171.86237	pano_0000_000169	52.3680780202057	4.90536581830441	50.6316919447854	-1.71892855633543	-0.300323097369273	127.906675140938
1142841172.86235	pano_0000_000170	52.3680805714344	4.90535899296431	50.6088151196018	-1.24962821115825	-0.117267210445595	124.978699384999
1142841173.86232	pano_0000_000171	52.3680818058184	4.90535592247093	50.578928665258	-1.22155830325511	-0.180941298327448	123.699653895015
1142841174.86229	pano_0000_000172	52.3680820862982	4.90535579999167	50.5444566756487	-1.24793463496833	-0.309810919522488	123.63242065541
1142841175.86231	pano_0000_000173	52.3680835780393	4.90535150108374	50.517117626965	-1.26477282758185	-0.411780834614634	121.625510683235
1142841176.86232	pano_0000_000174	52.3680877116316	4.90533590119196	50.5085578020662	-1.58418081646442	-0.414091728939951	114.895788603181
1142841177.86234	pano_0000_000175	52.3680911188541	4.90531371144946	50.4878538064659	-1.34823726249832	0.0816254272998003	105.499239492075
1142841178.86235	pano_0000_000176	52.3680913027099	4.90529500411781	50.4761535357684	-1.48404127863279	0.547667573636133	94.1964530458028
1142841179.86236	pano_0000_000177	52.3680900718566	4.9052821862035	50.4522051205859	-1.4219981160197	0.385906605797972	86.5144635140797
1142841180.86238	pano_0000_000178	52.3680890023421	4.90527541595238	50.4263669960201	-1.33109705802726	0.278740994893462	82.4652804196108
1142841181.86238	pano_0000_000179	52.3680889665239	4.90527508922084	50.3953817812726	-1.33466720757284	0.172557522979649	82.1533309013949
1142841182.8624	pano_0000_000180	52.3680891165111	4.90527590377986	50.3634257651865	-1.35910668360838	0.0479593484382572	82.4704603385542
1142841183.86241	pano_0000_000181	52.3680887578781	4.90527426312447	50.3381034033373	-1.30576391253489	0.126585163156564	81.4383249774243
1142841184.86242	pano_0000_000182	52.3680872380878	4.90526733114551	50.3115858612582	-1.34106180505313	-0.569429883235492	77.5476682783906
1142841185.86243	pano_0000_000183	52.3680825485748	4.90524165113496	50.2996282428503	-0.686020415500627	-0.818823409231416	76.1640975373446
1142841186.86244	pano_0000_000184	52.3680808382819	4.9052010190134	50.2891358789057	-0.327310845830963	-0.252867293454988	89.848482661703
1142841187.86244	pano_0000_000185	52.368088477885	4.90515267025383	50.2631429070607	-1.09630693724322	-0.250525403862498	107.385702073364
1142841188.86245	pano_0000_000186	52.3681039098092	4.90509707802839	50.2418852737173	-1.54741977730045	0.253037731166644	116.141490671035
1142841189.86246	pano_0000_000187	52.3681204329326	4.90504186124824	50.2341619292274	-1.644949304066	0.240987410662739	115.460107773402
1142841190.86247	pano_0000_000188	52.3681317273332	4.90498763136396	50.251989566721	-2.73852576265248	-1.10501257148855	106.516448939221
1142841191.86248	pano_0000_000189	52.3681384034729	4.90493596498872	50.2711782427505	-2.79571634567245	-0.0640182600803783	102.280900794273
1142841192.86249	pano_0000_000190	52.3681438467728	4.90489017524555	50.2874246891588	0.605474222023195	-0.322448983432548	105.106075322979
1142841193.86249	pano_0000_000191	52.3681513948087	4.90484452582076	50.2686640359461	1.23178687095183	0.104530909558097	105.696056905665
1142841194.8625	pano_0000_000192	52.3681546531076	4.90480029943703	50.2587422383949	2.11556623347669	-0.355819254615838	96.6084259051356
1142841195.86251	pano_0000_000193	52.3681536364974	4.90475355579093	50.2222556630149	3.65256319744121	0.245214258962352	89.5376803854092
1142841196.86252	pano_0000_000194	52.3681538739302	4.90470462744858	50.1933599514887	3.69173858938571	0.0668593967537868	93.1108062944913
1142841197.86252	pano_0000_000195	52.3681589730442	4.90465652794906	50.1653365343809	2.59663649464343	0.0911702449759548	102.827862192644
1142841198.86253	pano_0000_000196	52.3681722690957	4.90460829975846	50.0747041087598	-1.24513032309304	2.10467980664383	115.380922095547
1142841199.86254	pano_0000_000197	52.3681898792627	4.90455854726656	50.0450372314081	-0.144536373357751	-0.0392605333681345	121.504611196208
1142841200.86254	pano_0000_000198	52.3682077432605	4.90450946840213	50.0206792885438	1.13618485806095	0.809007877710276	122.431424770213
1142841201.86255	pano_0000_000199	52.3682254599251	4.90446448221977	49.9697659052908	0.73766245605161	-0.380613885514645	122.990186252539
1142841202.86256	pano_0000_000200	52.3682411948075	4.90442414732431	49.9640895565972	1.07098717565607	0.0472293522556483	123.15273642848
1142841203.86256	pano_0000_000201	52.3682546115394	4.90438996432269	49.9364644717425	1.3005047924891	0.189536542519506	123.297981951802
1142841204.86257	pano_0000_000202	52.3682666004563	4.90435981663837	49.9005771214142	1.38062911001488	0.204860693154109	123.334137176904
1142841783.84962	pano_0001_000000	52.3683144135329	4.90428317944704	47.9107167236507	0.227642656880917	1.61667327570178	124.36489446865
1142841784.86475	pano_0001_000001	52.3683142729962	4.90428332768126	47.8978578913957	0.229477048761973	1.61831100960206	124.359614488666
1142841785.86516	pano_0001_000002	52.3683141179502	4.9042834802614	47.8851356292143	0.226907290268339	1.61377358265092	124.365252043675
1142841786.86522	pano_0001_000003	52.3683139662168	4.90428363763121	47.872201343067	0.233656230120992	1.61617980760323	124.373727415053
1142841787.86525	pano_0001_000004	52.3683138280966	4.90428380820307	47.8590924460441	0.22564138126723	1.61843683379234	124.374626934697
1142841788.86528	pano_0001_000005	52.3683136844051	4.90428397882647	47.8453037263826	0.233301946877562	1.61504150720781	124.378191916304
1142841789.8653	pano_0001_000006	52.3683135322679	4.90428418271898	47.8315615784377	0.225833999928995	1.61775982108691	124.368278291744
1142841790.86533	pano_0001_000007	52.3683133874139	4.90428438625754	47.8180321110412	0.225607955910618	1.62153830787862	124.366876386773
1142841791.86536	pano_0001_000008	52.3683132530649	4.90428458922602	47.8050636071712	0.229953017768833	1.63289612793153	124.37091457024
1142841792.86538	pano_0001_000009	52.3683131059851	4.90428478413325	47.7915233429521	0.227159147694992	1.63377940449066	124.36868197015
1142841793.8654	pano_0001_000010	52.3683129612765	4.90428496766347	47.7795621426776	0.211109238163872	1.62996970717489	124.36316561503
1142841794.86542	pano_0001_000011	52.3683128101976	4.9042851335957	47.7691490380093	0.201315834618161	1.63327109319991	124.3604317055
1142841795.86548	pano_0001_000012	52.3683126715921	4.90428528943995	47.7598341824487	0.214428990448069	1.63302464948077	124.351746095553
1142841796.8655	pano_0001_000013	52.3683125533515	4.9042854283998	47.7498937975615	0.234357516701738	1.6281343315974	124.353417906227
1142841797.86552	pano_0001_000014	52.3683124627057	4.90428557112299	47.7384157935157	0.225151255134979	1.62109964556282	124.359786063801
1142841798.86554	pano_0001_000015	52.3683123862447	4.90428571988267	47.7284349659458	0.229592044847003	1.61659793780227	124.364011380695
1142841799.86555	pano_0001_000016	52.3683123181184	4.90428585601666	47.7181461211294	0.225563357609607	1.62492485331103	124.362692210155
1142841800.86556	pano_0001_000017	52.3683122474264	4.90428599379408	47.7082765186206	0.222262467762632	1.61913725333096	124.360309407583
1142841801.86557	pano_0001_000018	52.3683121512964	4.90428613118265	47.6980916270986	0.219227713059027	1.61568492985654	124.363124704767
1142841802.86559	pano_0001_000019	52.3683120271689	4.9042862629525	47.6872813459486	0.279307427467599	1.61491918236761	124.369482131939
1142841803.8656	pano_0001_000020	52.3683119290688	4.90428642087713	47.677252930589	0.290867905194685	1.62065112205166	124.36950740226
1142841804.86561	pano_0001_000021	52.3683118485014	4.90428662895757	47.673093130812	0.144287715982826	1.68781957041691	124.365603928435
1142841805.86562	pano_0001_000022	52.3683117452982	4.9042868379562	47.665456360206	0.136024133617616	1.66691019605569	124.368538410413
1142841806.86562	pano_0001_000023	52.3683116719055	4.90428707376814	47.6545078093186	0.0949332694001215	1.6534388609126	124.363339267913
1142841807.86563	pano_0001_000024	52.3683116222953	4.90428735592936	47.6421670755371	0.0714269885022765	1.65750278916578	124.377293098441
1142841808.86563	pano_0001_000025	52.3683116263747	4.9042876766049	47.6279719807208	0.0162860517820138	1.65557160965365	124.368496035836
1142841809.86564	pano_0001_000026	52.3683116203444	4.90428796767517	47.6164608513936	0.118025962316589	1.70283408556201	124.372544928313
1142841810.86564	pano_0001_000027	52.368311601892	4.90428831357335	47.6097471276298	0.251227933739977	1.71679559378357	124.380713136503
1142841811.86565	pano_0001_000028	52.3683116366773	4.90428867710068	47.5953773371875	0.247816257785357	1.70313244399844	124.392527760154
1142841812.86565	pano_0001_000029	52.3683116756771	4.90428904376586	47.5787156037986	0.223190334232974	1.70481130763184	124.396477299753
1142841813.86566	pano_0001_000030	52.3683117076362	4.90428938948725	47.5596408043057	0.232160523314807	1.68918513276023	124.391618908245
1142841814.86566	pano_0001_000031	52.3683117511232	4.90428973681025	47.541860980913	0.230695576409701	1.70249689259247	124.385599149353
1142841815.86567	pano_0001_000032	52.3683117968558	4.90429009218433	47.5256679980084	0.236582994384953	1.70648228655057	124.373713295136
1142841816.86567	pano_0001_000033	52.3683118439908	4.90429044773799	47.5101592261344	0.245206705012552	1.70732050245359	124.380191121708
1142841817.86568	pano_0001_000034	52.368311870159	4.90429080186047	47.4943785108626	0.23035788444461	1.71318901361772	124.377240654637
1142841818.86568	pano_0001_000035	52.36831187724	4.90429113463639	47.4792153881863	0.237600087643508	1.7120288299443	124.37893790906
1142841819.86569	pano_0001_000036	52.3683118966311	4.90429144753123	47.4638839168474	0.225548136190356	1.70563025896183	124.370294182703
1142841820.86569	pano_0001_000037	52.3683119193451	4.90429175099519	47.4482036791742	0.230007017415609	1.71463144982162	124.380470075691
1142841821.8657	pano_0001_000038	52.3683119245088	4.90429205681886	47.4323594551533	0.240331342890019	1.71081488420548	124.381127510635
1142841822.86575	pano_0001_000039	52.3683118896067	4.90429235004592	47.4164517391473	0.255693322758924	1.70308714378334	124.377389174206
1142841823.86576	pano_0001_000040	52.3683118660066	4.90429262267012	47.3993925713003	0.277056087133257	1.70782352298535	124.387395131691
1142841824.86576	pano_0001_000041	52.3683118200189	4.90429287732369	47.3825804023072	0.302337849817455	1.69925538901801	124.383882860078
1142841825.86577	pano_0001_000042	52.368311786597	4.90429311117616	47.3652179082856	0.28570487684974	1.69832584426775	124.382975859359
1142841826.86578	pano_0001_000043	52.3683117690394	4.90429329489745	47.3485186360776	0.290357282312021	1.70285604300318	124.373825456842
1142841827.86578	pano_0001_000044	52.3683117629488	4.90429346163467	47.3324058772996	0.292267562702458	1.70331897182711	124.370899460522
1142841828.86579	pano_0001_000045	52.368311782034	4.90429361773853	47.3179441094399	0.290603647701627	1.70486290418878	124.361043021601
1142841829.86579	pano_0001_000046	52.3683118255051	4.90429375669139	47.305198084563	0.300111121963579	1.70065106656314	124.362319532381
1142841830.8658	pano_0001_000047	52.3683118800262	4.90429385998855	47.2933880798519	0.305124763569225	1.70220261039556	124.363960390645
1142841831.86581	pano_0001_000048	52.3683119311326	4.9042939097896	47.2819729987532	0.310874939685887	1.69893382516028	124.364153685806
1142841832.86581	pano_0001_000049	52.3683119807159	4.90429392933373	47.2707965224981	0.309275249782646	1.69940677720303	124.366508230373
1142841833.86582	pano_0001_000050	52.3683120308463	4.90429391239724	47.2615342298523	0.298030038763054	1.70036460616127	124.366827535338
1142841834.86582	pano_0001_000051	52.3683120824884	4.90429383834193	47.2538675786927	0.309403713264324	1.69289019045368	124.365484746312
1142841835.86583	pano_0001_000052	52.3683121131116	4.90429373089008	47.2474153395742	0.309201805195469	1.6997187049259	124.353413586777
1142841836.86583	pano_0001_000053	52.3683121321927	4.90429359482517	47.2403831155971	0.30036469156903	1.69670662121865	124.35656310639
1142841837.86584	pano_0001_000054	52.3683121542492	4.90429342436495	47.2341483086348	0.300359543772057	1.6897040698434	124.357749411477
1142841838.86585	pano_0001_000055	52.3683121796399	4.90429322592906	47.2275242377073	0.300743368064239	1.69763890545164	124.362941051662
1142841839.86585	pano_0001_000056	52.368312208446	4.90429301554264	47.2208212381229	0.30070373450622	1.69791264337144	124.360785798239
1142841840.86586	pano_0001_000057	52.3683122214877	4.90429278815929	47.2149348072708	0.303814948735266	1.69508474170102	124.354092925142
1142841841.86587	pano_0001_000058	52.3683122194591	4.90429251911978	47.2080781124532	0.299031155143112	1.69131376689667	124.352947512523
1142841842.86587	pano_0001_000059	52.3683122311432	4.90429222218223	47.2015288360417	0.300061873807924	1.68538398469856	124.349991751292
1142841843.86588	pano_0001_000060	52.3683122514537	4.90429191599432	47.1953921932727	0.300338456432505	1.69175886539432	124.350570531933
1142841844.86588	pano_0001_000061	52.3683122643369	4.9042915905496	47.1885561197996	0.295798515359331	1.6974137196804	124.351183384586
1142841845.86589	pano_0001_000062	52.3683122775765	4.90429125811606	47.1804043315351	0.288060838703086	1.69659856027996	124.346140373335
1142841846.86589	pano_0001_000063	52.3683122986119	4.90429090055772	47.1738423369825	0.287352972527273	1.69116670358359	124.343709690708
1142841847.8659	pano_0001_000064	52.3683123178363	4.90429054741439	47.1685289330781	0.301134914107632	1.6899221150639	124.336583872897
1142841848.8659	pano_0001_000065	52.3683123327148	4.90429020503194	47.1642836006358	0.297055865488703	1.68111217449591	124.337011756141
1142841849.8659	pano_0001_000066	52.3683123404174	4.90428988737899	47.16118544247	0.298122986041062	1.676461719939	124.334329511791
1142841850.86591	pano_0001_000067	52.3683123389931	4.90428958611873	47.1582191959023	0.296651024816895	1.67009862222555	124.32377990491
1142841851.86591	pano_0001_000068	52.3683123182113	4.90428932279349	47.1551388623193	0.295080463941565	1.67547250219806	124.325064275566
1142841852.86591	pano_0001_000069	52.3683122614195	4.90428910545853	47.1521480344236	0.292308956171283	1.67009900112212	124.319768630019
1142841853.86596	pano_0001_000070	52.3683121793504	4.90428892654615	47.1482313293964	0.292234067416059	1.66851897094209	124.323669636352
1142841854.86597	pano_0001_000071	52.3683120898585	4.90428878102857	47.1431460725144	0.295941385079719	1.67449701389945	124.326143182776
1142841855.86593	pano_0001_000072	52.3683119950439	4.90428865998249	47.1384461577982	0.296963320796077	1.66307589998082	124.321180342242
1142841856.86591	pano_0001_000073	52.3683118967676	4.90428859856783	47.1344807883725	0.285189438144861	1.66855254206015	124.319833273849
1142841857.86589	pano_0001_000074	52.3683118015345	4.90428858886999	47.1306754872203	0.280652217930922	1.67319061017963	124.316965133225
1142841858.86586	pano_0001_000075	52.3683117102948	4.9042886307322	47.1283193686977	0.295615416785667	1.66790387066784	124.314874983249
1142841859.86587	pano_0001_000076	52.368311598277	4.9042887331889	47.1260986551642	0.287927596942741	1.67401020289704	124.305078316335
1142841860.86589	pano_0001_000077	52.3683114765975	4.90428888273497	47.1229226570576	0.286034382562855	1.66738200424869	124.303649483219
1142841861.8659	pano_0001_000078	52.3683113311297	4.90428909765127	47.1187877245247	0.279188107023513	1.67133234072185	124.30294416306
1142841862.86591	pano_0001_000079	52.3683111896588	4.90428936380557	47.1140184579417	0.284117732230087	1.66724985231806	124.30075700625
1142841863.86592	pano_0001_000080	52.368311041493	4.9042896787419	47.1106162061915	0.284817954896545	1.67251724636513	124.294794194465
1142841864.86594	pano_0001_000081	52.3683108892142	4.90429004856984	47.1073913499713	0.287558429663815	1.68365682031079	124.290512105373
1142841865.86594	pano_0001_000082	52.368310724508	4.90429045385579	47.102374968119	0.283610345780566	1.69165385333674	124.286217645066
1142841866.86596	pano_0001_000083	52.3683105643995	4.90429086913363	47.0971548212692	0.288843743216796	1.69043191305972	124.282674078043
1142841867.86596	pano_0001_000084	52.3683104158556	4.90429128439054	47.0926879001781	0.287230349630407	1.69248017082516	124.277885866305
1142841868.86597	pano_0001_000085	52.3683102802501	4.90429171287512	47.0885356068611	0.287113127743458	1.69157602005854	124.272321605681
1142841869.86598	pano_0001_000086	52.368310126859	4.90429216416365	47.0848406460136	0.28446737526405	1.6958391250889	124.272264313556
1142841870.86599	pano_0001_000087	52.3683099542574	4.90429263352645	47.080006480217	0.285320176546658	1.70563557440926	124.267117770597
1142841871.866	pano_0001_000088	52.3683098001862	4.90429309791331	47.0736417779699	0.290023218535878	1.70209710431107	124.268345895649
1142841872.86601	pano_0001_000089	52.3683096515155	4.90429354922383	47.0671314997599	0.284257157868522	1.70753538268337	124.261164593545
1142841873.86602	pano_0001_000090	52.3683095305753	4.90429395068703	47.0622484330088	0.284620448709582	1.70422536877426	124.255028605209
1142841874.86603	pano_0001_000091	52.368309421134	4.90429433859233	47.0589752234519	0.289960906032965	1.70891038969601	124.259457500909
1142841875.86608	pano_0001_000092	52.3683093068732	4.90429471950244	47.0541884442791	0.286019115956793	1.7201518677647	124.252821482951
1142841876.86609	pano_0001_000093	52.368309210895	4.90429508496909	47.048687630333	0.2921384204961	1.71238427312567	124.255375665706
1142841877.86609	pano_0001_000094	52.3683091317	4.90429542409883	47.0429499289021	0.287147078438445	1.71541926388537	124.251848564343
1142841878.8661	pano_0001_000095	52.3683090975038	4.90429574041497	47.03671619948	0.287859621867061	1.71392514386451	124.245092756555
1142841879.86611	pano_0001_000096	52.3683090975731	4.90429602351302	47.0293011991307	0.290555759182877	1.71674692617446	124.238405655902
1142841880.86612	pano_0001_000097	52.3683091194448	4.90429628461782	47.0220253607258	0.28501148049581	1.71814059779734	124.236527275118
1142841881.86612	pano_0001_000098	52.3683091728398	4.90429651472916	47.0152359586209	0.288284108190075	1.72118754878261	124.236558054033
1142841882.86613	pano_0001_000099	52.3683092425421	4.90429669339875	47.0089649725705	0.294697070320605	1.71516990707385	124.237487957012
1142841883.86614	pano_0001_000100	52.3683093144234	4.90429683597455	47.0036542378366	0.291900098740539	1.71288762853055	124.239389368263
1142841884.86615	pano_0001_000101	52.3683094009924	4.90429696436409	46.9979537632316	0.294155661768677	1.7061244576146	124.243523131431
1142841885.86615	pano_0001_000102	52.3683094972197	4.90429708277785	46.9906601542607	0.29486347693095	1.70251018132209	124.246538138186
1142841886.86616	pano_0001_000103	52.3683096151233	4.90429716069244	46.9820634815842	0.288913766563202	1.70866295798643	124.237102324121
1142841887.86616	pano_0001_000104	52.3683097629439	4.90429724271395	46.9739670706913	0.293837185578467	1.70441403832109	124.233252235628
1142841888.86617	pano_0001_000105	52.3683099147938	4.90429732490559	46.9671122822911	0.289489126174419	1.70914352485034	124.243314858599
1142841889.86618	pano_0001_000106	52.3683100800063	4.90429739998184	46.9602448344231	0.294485643282555	1.70242255900053	124.255205560576
1142841890.86617	pano_0001_000107	52.3683102570226	4.90429744397344	46.9543120488524	0.295338336025009	1.68935516030828	124.263212412897
1142841891.86618	pano_0001_000108	52.3683104150714	4.90429747452998	46.9485774254426	0.291724968199448	1.69508986184507	124.259342858239
1142841892.86618	pano_0001_000109	52.3683105676862	4.90429751139609	46.9419398587197	0.293242266436212	1.68964649761074	124.253383734514
1142841893.86618	pano_0001_000110	52.3683107011665	4.90429756178849	46.9368295669556	0.290706818061485	1.69527432512641	124.255498747542
1142841894.86618	pano_0001_000111	52.3683108416458	4.9042975981191	46.9330233838409	0.29591535474267	1.69678148550664	124.254912640693
1142841895.86619	pano_0001_000112	52.3683109783813	4.90429763682319	46.9272482665256	0.29833015107239	1.69754049478342	124.255760195781
1142841896.86619	pano_0001_000113	52.3683111155081	4.90429769494965	46.9194243876264	0.294042271735384	1.7000434658531	124.258868756345
1142841897.86619	pano_0001_000114	52.3683112668974	4.90429776179199	46.9132377551869	0.288703337875617	1.69921755287762	124.262797490031
1142841898.86619	pano_0001_000115	52.3683114419877	4.90429780659761	46.9083299906924	0.297725061749862	1.69657702003472	124.270753726147
1142841899.8662	pano_0001_000116	52.3683116173692	4.90429783637845	46.9028523238376	0.29538323920563	1.70327877260896	124.270456561425
1142841900.8662	pano_0001_000117	52.3683117893561	4.90429786146556	46.8975604902953	0.292092891692379	1.70529382429525	124.260839177984
1142841901.86621	pano_0001_000118	52.3683119522189	4.90429788341442	46.8924849405885	0.289793920821444	1.69884912418426	124.258559246807
1142841902.86621	pano_0001_000119	52.3683121187999	4.90429790038479	46.8871760740876	0.290329218593237	1.69859971616268	124.261106041643
1142841903.86622	pano_0001_000120	52.3683123067408	4.90429792094197	46.8836172688752	0.291070082799569	1.69485339163707	124.260713172247
1142841904.86622	pano_0001_000121	52.3683124956148	4.9042979289632	46.8800696823746	0.290007673713167	1.69399773045349	124.266140426057
1142841905.86623	pano_0001_000122	52.3683126890579	4.90429792712946	46.8753492953256	0.285696831790364	1.69520176783564	124.265499611719
1142841906.86623	pano_0001_000123	52.3683128982343	4.90429790234431	46.8697212655097	0.293755257361787	1.68607543123135	124.267743379558
1142841907.86624	pano_0001_000124	52.3683131053286	4.90429789578077	46.8647966049612	0.306266112165539	1.69238585080423	124.271594885826
1142841908.86624	pano_0001_000125	52.3683132955404	4.90429791581559	46.860524052754	0.298734130828331	1.6869714078456	124.262073041399
1142841909.86625	pano_0001_000126	52.3683134823068	4.90429794714656	46.8546815179288	0.293071059028955	1.68044733653402	124.259614989126
1142841910.86625	pano_0001_000127	52.3683136629115	4.90429801000512	46.8483479106799	0.292921735266658	1.68526591051856	124.25216267394
1142841911.86626	pano_0001_000128	52.3683138519975	4.90429810806999	46.8426221283153	0.297327953078427	1.69094155064286	124.250268405261
1142841912.86626	pano_0001_000129	52.3683140399116	4.90429822704372	46.8357674200088	0.301952390749843	1.68983376507656	124.257615178986
1142841913.86627	pano_0001_000130	52.3683142154792	4.90429834816967	46.8281815713272	0.293050593014043	1.69080460259717	124.251880860997
1142841914.86627	pano_0001_000131	52.3683143912606	4.90429847544899	46.821374819614	0.3033734404963	1.68693871357171	124.264153901832
1142841915.86628	pano_0001_000132	52.3683145502533	4.90429860908132	46.8149929074571	0.31265434788031	1.68532846523055	124.263768791623
1142841916.86628	pano_0001_000133	52.3683146859904	4.90429876874956	46.8076706202701	0.302672165681232	1.68871821447226	124.249400672396
1142841917.86629	pano_0001_000134	52.3683148089246	4.90429895647016	46.7982819806784	0.30214814559521	1.68204423047979	124.25152546175
1142841918.86629	pano_0001_000135	52.3683149144383	4.90429915472415	46.7876843605191	0.299715304617823	1.6876375788406	124.239688103203
1142841919.8663	pano_0001_000136	52.3683150188038	4.90429935125065	46.7774461433291	0.297663990191231	1.68406802198395	124.237388266531
1142841920.86631	pano_0001_000137	52.3683151204576	4.90429954613586	46.767480137758	0.298520742124759	1.68792932586398	124.228377473589
1142841921.86631	pano_0001_000138	52.3683152148092	4.90429974723568	46.7573631536216	0.302043333982462	1.68801419977793	124.225640248291
1142841922.86632	pano_0001_000139	52.3683152946913	4.90429996401719	46.7485894486308	0.296344723478899	1.69317193560092	124.221115812093
1142841923.86633	pano_0001_000140	52.3683153707137	4.90430017860136	46.7414928413928	0.298411823107773	1.68901160324764	124.218552167464
1142841924.86633	pano_0001_000141	52.368315435335	4.90430040626832	46.7371102385223	0.301580799375163	1.69331074992617	124.208536386481
1142841925.86634	pano_0001_000142	52.3683155006384	4.90430062663224	46.7326402720064	0.31000704346479	1.68840056004437	124.200732120178
1142841926.86634	pano_0001_000143	52.368315559475	4.90430080980641	46.728653581813	0.310201090221008	1.69243291688131	124.198513082725
1142841927.86635	pano_0001_000144	52.3683156288824	4.9043009543746	46.7249412499368	0.308235384202739	1.69497575282042	124.197976649187
1142841928.86635	pano_0001_000145	52.3683157006833	4.90430107402118	46.7218345673755	0.308380582355736	1.69505728654205	124.196857008055
1142841929.86636	pano_0001_000146	52.3683157574046	4.90430116169686	46.7186233168468	0.308357792108717	1.69358462909286	124.196840154091
1142841930.86636	pano_0001_000147	52.3683158184339	4.90430122646924	46.7144596111029	0.307281203888675	1.69898199565946	124.197119141253
1142841931.86637	pano_0001_000148	52.3683158735958	4.90430128122522	46.7116506742314	0.308796338725844	1.69187419666748	124.190862587607
1142841932.86638	pano_0001_000149	52.3683159174823	4.90430134689042	46.7102041756734	0.310622797384162	1.6917586268503	124.187426162392
1142841933.86637	pano_0001_000150	52.3683159442499	4.90430139734805	46.7096660584211	0.303675652919188	1.69499152242958	124.190058919484
1142841934.86638	pano_0001_000151	52.3683159407977	4.90430143696136	46.7089278558269	0.306743065663297	1.68373086855727	124.182753295139
1142841935.86637	pano_0001_000152	52.368315911038	4.90430148773345	46.7071565296501	0.304818558934192	1.69321631386614	124.176348883191
1142841936.86638	pano_0001_000153	52.368315864904	4.90430153216818	46.7048085508868	0.305060014231924	1.69362011550001	124.181676828084
1142841937.86638	pano_0001_000154	52.3683157823614	4.9043015632648	46.7036851979792	0.318643210772785	1.66990415006292	124.185895808198
1142841938.86638	pano_0001_000155	52.3683156967003	4.9043015689457	46.7019658898935	0.314138513186059	1.66845934786367	124.188797725486
1142841939.86638	pano_0001_000156	52.3683156131153	4.90430156391954	46.6997593836859	0.314244170469534	1.6815246206198	124.188433428707
1142841940.86639	pano_0001_000157	52.3683155190871	4.90430153179258	46.6970116570592	0.314176817317688	1.6789149757993	124.183186586815
1142841941.86639	pano_0001_000158	52.3683153955441	4.90430147967431	46.6955631440505	0.3043658969073	1.6897699694131	124.172397086273
1142841942.8664	pano_0001_000159	52.3683152684432	4.9043014052426	46.6955069275573	0.307968143529513	1.69297880476694	124.164172044219
1142841943.86637	pano_0001_000160	52.368315132698	4.9043013195538	46.693689795211	0.31088323466756	1.68351368133801	124.14664609809
1142841944.86635	pano_0001_000161	52.3683149807305	4.90430124172803	46.6929599260911	0.293968263302862	1.69358481635634	124.137800903242
1142841945.86632	pano_0001_000162	52.3683148306682	4.90430116919111	46.692468312569	0.269565732076187	1.68414901791674	124.133993038104
1142841946.8663	pano_0001_000163	52.3683147170054	4.90430109359363	46.6850696858019	0.129697795134983	1.66183484282257	124.152593345222
1142841947.86632	pano_0001_000164	52.368314513459	4.90430102262641	46.6831566467881	0.221646440368368	1.65593161321689	124.125750961213
1142841948.86633	pano_0001_000165	52.3683143495198	4.90430093207944	46.6807392966002	0.198752990697806	1.66854107353735	124.136895740187
1142841949.86634	pano_0001_000166	52.3683141658799	4.90430082639894	46.6790068820119	0.200482305684915	1.65977036133638	124.128084871659
1142841950.86636	pano_0001_000167	52.3683139906372	4.90430072798861	46.6770749995485	0.192991854721334	1.66349401277756	124.128316990666
1142841951.86637	pano_0001_000168	52.3683138492795	4.90430062856719	46.6752785984427	0.200896046265912	1.65827006404423	124.124759984968
1142841952.86638	pano_0001_000169	52.368313733039	4.90430051841587	46.6729893051088	0.201934575948177	1.65669040067118	124.121092044048
1142841953.86639	pano_0001_000170	52.3683136178312	4.90430042599665	46.6703435070813	0.199061916110194	1.65508379627654	124.121903669723
1142841954.8664	pano_0001_000171	52.3683134990592	4.90430034136885	46.6672327741981	0.199413024976368	1.65076144747893	124.125587408158
1142841955.86641	pano_0001_000172	52.3683133759639	4.90430026093837	46.6649404186755	0.195257302351938	1.6539477581251	124.132395032687
1142841956.86642	pano_0001_000173	52.3683132599647	4.9043001798551	46.662880695425	0.194730701099067	1.65922387244281	124.130651692286
1142841957.86643	pano_0001_000174	52.368313147081	4.90430010473503	46.6625526361167	0.195394909984011	1.65478661494696	124.130394879014
1142841958.86644	pano_0001_000175	52.3683130377582	4.90430002470081	46.6618265211582	0.188335674375341	1.65483395724094	124.126987412967
1142841959.86645	pano_0001_000176	52.3683129551554	4.90429992219049	46.6610475182533	0.191299660597524	1.65720837116115	124.12083088344
1142841960.86646	pano_0001_000177	52.368312881956	4.90429983104064	46.6621836200356	0.192649526546919	1.65393623459358	124.118607484807
1142841961.86646	pano_0001_000178	52.3683128056306	4.90429977157645	46.6645215097815	0.185356830124819	1.65350150471716	124.120725802246
1142841962.86647	pano_0001_000179	52.3683127474119	4.90429972362249	46.6667242590338	0.186752657335354	1.65271241515916	124.122152865805
1142841963.86648	pano_0001_000180	52.3683127133806	4.90429967821605	46.6700390726328	0.198520531862209	1.65871948330033	124.121943001689
1142841964.86649	pano_0001_000181	52.3683126804761	4.90429964124136	46.6728257313371	0.197125813222947	1.66417769581398	124.116971300138
1142841965.86649	pano_0001_000182	52.3683126452398	4.90429960546147	46.6749750142917	0.188827107181055	1.65753734014012	124.114589306154
1142841966.8665	pano_0001_000183	52.3683126370291	4.90429959815987	46.6756688728929	0.197459530217481	1.65289831221016	124.112110952802
1142841967.86651	pano_0001_000184	52.3683126492061	4.90429960240034	46.6766171790659	0.199735680649919	1.65538288807234	124.113968071618
1142841968.86652	pano_0001_000185	52.368312675132	4.9042996005789	46.6780738476664	0.200388117294295	1.65633724747023	124.111558031726
1142841969.86652	pano_0001_000186	52.3683127161163	4.90429959850292	46.6807225570083	0.194873178489031	1.65205566921418	124.109932625435
1142841970.86653	pano_0001_000187	52.3683127703884	4.90429960239692	46.6838423572481	0.198344518585516	1.65427753600591	124.114520093307
1142841971.86654	pano_0001_000188	52.3683128194743	4.90429960852032	46.6869257148355	0.203879554335454	1.64731584632722	124.104278699845
1142841972.86655	pano_0001_000189	52.3683128517705	4.9042996258326	46.6896496703848	0.205501661598514	1.64918473663912	124.110745072579
1142841973.86655	pano_0001_000190	52.3683128893578	4.90429964907253	46.6932125305757	0.201768987928048	1.64926934478736	124.102872576603
1142841974.86656	pano_0001_000191	52.3683129262157	4.90429967386825	46.6977068232372	0.20412163137499	1.64317328346856	124.109122605778
1142841975.86656	pano_0001_000192	52.3683129662925	4.9042997096632	46.7014492452145	0.217002681141916	1.64597994976615	124.11054803051
1142841976.86656	pano_0001_000193	52.3683129929979	4.90429975331763	46.7048243395984	0.209217906308069	1.65291639858711	124.107739857987
1142841977.86657	pano_0001_000194	52.3683130150834	4.90429979313464	46.7091855881736	0.20881323886426	1.64765076135604	124.101301937911
1142841978.86657	pano_0001_000195	52.3683130278729	4.90429981773838	46.7139574903995	0.213124871646954	1.64733450426764	124.110224959642
1142841979.86662	pano_0001_000196	52.3683130400198	4.90429985116933	46.7175777703524	0.213798870502987	1.64799284031048	124.111082627937
1142841980.86662	pano_0001_000197	52.3683130337984	4.90429990840508	46.7209872538224	0.21493179080855	1.63538119730889	124.10569336912
1142841981.86662	pano_0001_000198	52.3683130122387	4.90429996789339	46.7248550644144	0.207189299398312	1.64016689591347	124.099864250328
1142841982.86662	pano_0001_000199	52.3683129843125	4.90430002936812	46.7303652931005	0.206259312623381	1.64706594570948	124.100444136009
1142841983.86663	pano_0001_000200	52.3683129533444	4.90430009372113	46.7369012823328	0.207399006890695	1.64431876569035	124.107390171227
1142841984.86663	pano_0001_000201	52.3683129037868	4.90430016378236	46.7430814690888	0.204250494116632	1.64926391317926	124.109357872405
1142841985.86664	pano_0001_000202	52.3683128364694	4.9043002469252	46.7482020463794	0.196344303278712	1.64511478092278	124.099318864227
1142841986.86664	pano_0001_000203	52.3683127737714	4.90430034813051	46.7518462678418	0.204678099401403	1.6404064443472	124.093090229396
1142841987.86664	pano_0001_000204	52.3683127175484	4.90430048588545	46.7539410674945	0.205365364907157	1.64422151936592	124.094002973119
1142841988.86665	pano_0001_000205	52.3683126578047	4.90430065029137	46.7555717313662	0.204198273810728	1.65550906290858	124.10782386581
1142841989.86665	pano_0001_000206	52.3683126079838	4.90430082244245	46.7575677121058	0.20797216467002	1.64332110460796	124.110173682843
1142841990.86666	pano_0001_000207	52.368312552351	4.90430099100681	46.7590165222064	0.204139932092242	1.65013747294476	124.096879349018
1142841991.86666	pano_0001_000208	52.3683124920184	4.90430115657758	46.760630145669	0.21111544506731	1.65749471617609	124.095509991383
1142841992.86666	pano_0001_000209	52.3683124304149	4.90430130664944	46.763007869944	0.20624000152035	1.65618008152573	124.081619952385
1142841993.86667	pano_0001_000210	52.3683123573275	4.90430143050924	46.765541783534	0.204523885840952	1.65941146533372	124.081190586181
1142841994.86667	pano_0001_000211	52.3683123097768	4.90430156365076	46.7692513065413	0.197824947141326	1.65807657704282	124.08306131679
1142841995.86668	pano_0001_000212	52.3683122664985	4.90430165884816	46.7716669132933	0.198542256734165	1.66442066527036	124.079414128344
1142841996.86669	pano_0001_000213	52.3683122337424	4.90430173984881	46.772838274017	0.197389393549296	1.66759682187325	124.088265145009
1142841997.86669	pano_0001_000214	52.3683122149452	4.90430179816443	46.7722788844258	0.1953849291466	1.6628190905681	124.087513772277
1142841998.8667	pano_0001_000215	52.3683122283491	4.90430182403034	46.7722346140072	0.20162085670296	1.65468292732068	124.090787024648
1142841999.8667	pano_0001_000216	52.3683122559938	4.90430183923878	46.773259492591	0.203291247048525	1.6575009217073	124.088587262149
1142842000.86671	pano_0001_000217	52.3683122934818	4.90430185930978	46.7745759058744	0.194476872304901	1.65306477059333	124.076982891845
1142842001.86672	pano_0001_000218	52.3683123424585	4.90430186870795	46.7765277465805	0.201377382695362	1.65006998678065	124.075222154782
1142842002.86672	pano_0001_000219	52.3683124031428	4.90430188215496	46.7785520851612	0.198810269579243	1.6516991182402	124.076577480179
1142842003.86673	pano_0001_000220	52.3683124649145	4.90430192732294	46.781122148037	0.202035460589366	1.6544484055314	124.078815838599
1142842004.86673	pano_0001_000221	52.3683125121082	4.90430197803853	46.784126624465	0.191450690202928	1.65613962092102	124.074092108381
1142842005.86674	pano_0001_000222	52.3683125566373	4.90430201363745	46.7877449542284	0.167259218994136	1.65994191183542	124.073029461809
1142842006.86674	pano_0001_000223	52.3683126107765	4.90430203597903	46.7916995305568	0.14404245258177	1.66169060999203	124.067329907735
1142842007.86675	pano_0001_000224	52.3683126301849	4.90430201820262	46.7991736792028	0.246982976730751	1.71013033483823	124.069979419762
1142842008.86675	pano_0001_000225	52.3683126797651	4.90430201688483	46.8029689500108	0.248400913414323	1.69983867256069	124.074354680453
1142842009.86676	pano_0001_000226	52.3683127212313	4.90430198526399	46.8046226864681	0.323171453014655	1.68195009801878	124.072267837998
1142842010.86677	pano_0001_000227	52.3683128128801	4.90430199319726	46.803213971667	0.292465452688949	1.67776651099317	124.070772873988
1142842011.86677	pano_0001_000228	52.3683129201349	4.90430199089191	46.8010137053207	0.291236717880158	1.68379322901221	124.080202838202
1142842012.86678	pano_0001_000229	52.3683130474847	4.90430198534924	46.7978171426803	0.289132611201002	1.6811691188924	124.088330027785
1142842013.86679	pano_0001_000230	52.3683131877626	4.90430198181765	46.7941826302558	0.294144950582938	1.67729923100348	124.081465485822
